caco3,ph_fld,mgcaco3,tritium,ts,pcb,cocci,Date Collection,barium,odour_code,nh3_n,Longitude,org_n,Agency Name,har_ca,p_tot,d_o,bod3_27,zn,_do,Station Name,_401,Latitude,aldrin,co3,ddt,District Name,o_po4_p,Sub Basin Name,d_o_,no2__n,sio3,sio2,strontium,tds,fcol_mpn,secchi,k,State Name,har_mg,cod,bod,turb,alk_phen,cn,cl,ca,cd,no2_no3,oxygen_18,cr,cu,pb,no2_n,toc,ph,no3_n,dieldrin,hco3,so4,tcol_mpn,hg,mg,b,phenols,temp,f,mn,radon,har_total,endos,colour_cod,ag,bhc,_24d,al,sar,ec_gen,ni,na,uranium,na_,pah,chlf_a,do_sat_,ph_gen,_as,fe,carbon_14,ec_fld,rsc,ss,alk_tot,Basin Name,se,"2,4-D",Aldrin,Alkalinity(Total),"Alkalinity, Phenolphthalein (mg/L)",Aluminium,Ammonia-N (mg/L),Arsenic (mg/L),Barium,Bicarbonate (mg/L),Biochemical Oxygen Demand (mg/L),Boron (mg/L),Cadmium (mg/L),Calcium (mg/L),Calcium Hardness (mg/L),Carbon(14),Carbonate (mg/L),Chemical Oxygen Demand (mg/L),Chloride (mg/L),Chlorophyll-a,Chromium (mg/L),Colour,Copper,Cyanide,DDT,Dieldrin,Dissolved Oxygen1 (mg/L),Dissolved Oxygen2 (mg/L),Dissolved Oxygen Saturation(%),Electrical Conductivity (mumhos/cm) at 25 C),Electrical Conductivity Field,Endosulphan,Fecal Coliforms (MPN/100ml),Fecal Streptococci (MPN/100ml),Fluoranthene,Fluoride (mg/L),Gamma-BHC(Benzene HexaChloride),Iron (mg/L),Lead (mg/L),Magnesium (mg/L),Manganese (mg/L),Mercury (mg/L),Nickel (mg/L),Nitrate (mg/L),"Nitrogen, Nitrite","Nitrogen, Total Oxidised (NO2+NO3)","Nitrogen,Organic",Odour,Oxygen(18),PCB-1242,Percent Sodium,Phosphorus(Total),"Phosphorus, ortho-phosphate (mg/L)",Potassium (mg/L),Radon,Residual Sodium Carbonate,Secchi Depth,Selenium (mg/L),Silicate (SiO2) (mg/L),Silicate(SiO3),Silver (mg/L),Sodium (mg/L),Sodium Absorption Ratio,Solids(Total),"Solids,Suspended",Strontium,Sulphate (mg/L),Temperature,Total Alkalinity (mg/L),Total Coliforms (MPN/100ml),Total Dissolved Solids (mg/L),Total Hardness (mg/L),Total Organic Carbon,Total phenols,Tritium,Turbidity (NTU),Uranium,Zinc (mg/L),pH2,pH_Field,ph1
-,,-,,,,,2019-01,,,,73.686373,,CPCB,44.8,,,,,,Goverdhan Sagar Udaipur,-,24.542657,,,,UDAIPUR,,Banas,,-,,,,742,20,,,Rajasthan,24.4,32.5,-,4.4,,,216,,,,,,,,,,,2.36,,,,75,,,,,,0.86,,,,,,,,,,,1130,,,,,,,,8.6,,,,,,,204,Ganga Basin,,-,-,-,-,-,-,-,-,-,-,-,-,-,-,-,-,-,-,-,-,-,-,-,-,-,-,-,-,-,-,-,-,-,-,-,-,-,-,-,-,-,-,-,-,-,-,-,-,-,-,-,-,-,-,-,-,-,-,-,-,-,-,-,-,-,-,-,-,-,-,-,-,-,-,-,-,-,-,-,-
-,,-,,,,,2019-01,,,,77.173425,,CPCB,75.4,,,,,,Ground Water At Shimla D/S Of Msw Dumping Site,-,31.104606,,,,SHIMLA,,Yamuna Upper,,-,,,,332.4,70,,,Himachal Pradesh,5.4,112,-,68.9,,,142,,,,,,,,,,,1.11,,,,1600,,,,,,1.36,,,,,,,,,,,665,,,,,,,,7.4,,,,,,,203,Ganga Basin,,-,-,-,-,-,-,-,-,-,-,-,-,-,-,-,-,-,-,-,-,-,-,-,-,-,-,-,-,-,-,-,-,-,-,-,-,-,-,-,-,-,-,-,-,-,-,-,-,-,-,-,-,-,-,-,-,-,-,-,-,-,-,-,-,-,-,-,-,-,-,-,-,-,-,-,-,-,-,-,-
-,,-,,,,,2019-01,,,,77.096698,,CPCB,,,,,,,Ground Water At Solan-D/S Of Msw Dumping Site Salogra,-,30.90541,,,,SOLAN,,Yamuna Upper,,-,,,,188,,,,Himachal Pradesh,-,,-,,,,14,,,,,,,,,,,,,,,2,,,,,,0.2,,,,,,,,,,,322,,,,,,,,8.3,,,,,,,132,Ganga Basin,,-,-,-,-,-,-,-,-,-,-,-,-,-,-,-,-,-,-,-,-,-,-,-,-,-,-,-,-,-,-,-,-,-,-,-,-,-,-,-,-,-,-,-,-,-,-,-,-,-,-,-,-,-,-,-,-,-,-,-,-,-,-,-,-,-,-,-,-,-,-,-,-,-,-,-,-,-,-,-,-
-,7.35,-,,,,,2019-01,,,,77.88305556,,Uttarakhand,,,,,,3.39,I.R.I Colony Tubewell,-,29.86694444,,,,Haridwar,,Yamuna Upper,,-,,,,229,,,,Uttarakhand,-,,-,0.73,,,1.99,,,,,,0.29,,,,,,,,8,,,,,,,,,,,,,,,,,,476,,,,0.23,,,,7.35,,0.24,,476,,,36,Ganga Basin,,-,-,-,-,-,-,-,-,-,-,-,-,-,-,-,-,-,-,-,-,-,-,-,-,-,-,-,-,-,-,-,-,-,-,-,-,-,-,-,-,-,-,-,-,-,-,-,-,-,-,-,-,-,-,-,-,-,-,-,-,-,-,-,-,-,-,-,-,-,-,-,-,-,-,-,-,-,-,-,-
-,,-,,,,,2019-01,,,,73.686478,,CPCB,35.2,,,,,,Swaroop Nagar Udaipur,-,24.589079,,,,UDAIPUR,,Banas,,-,,,,404,9,,,Rajasthan,20.5,9.1,-,2.9,,,144,,,,,,,,,,,2.28,,,,28,,,,,,0.86,,,,,,,,,,,630,,,,,,,,8.6,,,,,,,156,Ganga Basin,,-,-,-,-,-,-,-,-,-,-,-,-,-,-,-,-,-,-,-,-,-,-,-,-,-,-,-,-,-,-,-,-,-,-,-,-,-,-,-,-,-,-,-,-,-,-,-,-,-,-,-,-,-,-,-,-,-,-,-,-,-,-,-,-,-,-,-,-,-,-,-,-,-,-,-,-,-,-,-,-
-,,-,,,,,2019-01,,,,76.020183,,CPCB,520,,,,,,Tube Well/ Hand Pump At Industrial Area Dewas,-,22.943809,,,,DEWAS,,Chambal Upper,,-,,,,2172,,,,Madhya Pradesh,700,22,-,,,,676,,,,,,,,,,,4.2,,,,,,,,,,,,,,,,,,,,,,,,,,,,,8.2,,,,,,,320,Ganga Basin,,-,-,-,-,-,-,-,-,-,-,-,-,-,-,-,-,-,-,-,-,-,-,-,-,-,-,-,-,-,-,-,-,-,-,-,-,-,-,-,-,-,-,-,-,-,-,-,-,-,-,-,-,-,-,-,-,-,-,-,-,-,-,-,-,-,-,-,-,-,-,-,-,-,-,-,-,-,-,-,-
-,,-,,,,,2019-02,,,,73.686373,,CPCB,48,,,,,,Goverdhan Sagar Udaipur,-,24.542657,,,,UDAIPUR,,Banas,,-,,,,818,21,,,Rajasthan,25.4,38.4,-,5.3,,,244,,,,,,,,,,,2.36,,,,150,,,,,,0.84,,,,,,,,,,,244,,,,,,,,8.7,,,,,,,216,Ganga Basin,,-,-,-,-,-,-,-,-,-,-,-,-,-,-,-,-,-,-,-,-,-,-,-,-,-,-,-,-,-,-,-,-,-,-,-,-,-,-,-,-,-,-,-,-,-,-,-,-,-,-,-,-,-,-,-,-,-,-,-,-,-,-,-,-,-,-,-,-,-,-,-,-,-,-,-,-,-,-,-,-
-,,-,,,,,2019-02,,,,77.173425,,CPCB,61.7,,,,,,Ground Water At Shimla D/S Of Msw Dumping Site,-,31.104606,,,,SHIMLA,,Yamuna Upper,,-,,,,276,46,,,Himachal Pradesh,10.7,152,-,26.4,,,105,,,,,,,,,,,1.51,,,,1600,,,,,,0.83,,,,,,,,,,,525,,,,,,,,7.1,,,,,,,165,Ganga Basin,,-,-,-,-,-,-,-,-,-,-,-,-,-,-,-,-,-,-,-,-,-,-,-,-,-,-,-,-,-,-,-,-,-,-,-,-,-,-,-,-,-,-,-,-,-,-,-,-,-,-,-,-,-,-,-,-,-,-,-,-,-,-,-,-,-,-,-,-,-,-,-,-,-,-,-,-,-,-,-,-
-,,-,,,,,2019-02,,,,77.096698,,CPCB,,,,,,,Ground Water At Solan-D/S Of Msw Dumping Site Salogra,-,30.90541,,,,SOLAN,,Yamuna Upper,,-,,,,112,,,,Himachal Pradesh,-,,-,,,,19,,,,,,,,,,,0.58,,,,2,,,,,,0.28,,,,,,,,,,,302,,,,,,,,8.3,,,,,,,172,Ganga Basin,,-,-,-,-,-,-,-,-,-,-,-,-,-,-,-,-,-,-,-,-,-,-,-,-,-,-,-,-,-,-,-,-,-,-,-,-,-,-,-,-,-,-,-,-,-,-,-,-,-,-,-,-,-,-,-,-,-,-,-,-,-,-,-,-,-,-,-,-,-,-,-,-,-,-,-,-,-,-,-,-
-,,-,,,,,2019-02,,,,73.686478,,CPCB,36.8,,,,,,Swaroop Nagar Udaipur,-,24.589079,,,,UDAIPUR,,Banas,,-,,,,442,14,,,Rajasthan,22.4,22.4,-,4,,,164,,,,,,,,,,,2.46,,,,75,,,,,,0.86,,,,,,,,,,,620,,,,,,,,8.7,,,,,,,164,Ganga Basin,,-,-,-,-,-,-,-,-,-,-,-,-,-,-,-,-,-,-,-,-,-,-,-,-,-,-,-,-,-,-,-,-,-,-,-,-,-,-,-,-,-,-,-,-,-,-,-,-,-,-,-,-,-,-,-,-,-,-,-,-,-,-,-,-,-,-,-,-,-,-,-,-,-,-,-,-,-,-,-,-
-,,-,,,,,2019-03,,,,73.686373,,CPCB,48,,,,,,Goverdhan Sagar Udaipur,-,24.542657,,,,UDAIPUR,,Banas,,-,,,,862,28,,,Rajasthan,28.3,39.6,-,4.7,,,252,,,,,,,,,,,2.46,,,,150,,,,,,0.86,,,,,,,,,,,1130,,,,,,,,8.7,,,,,,,224,Ganga Basin,,-,-,-,-,-,-,-,-,-,-,-,-,-,-,-,-,-,-,-,-,-,-,-,-,-,-,-,-,-,-,-,-,-,-,-,-,-,-,-,-,-,-,-,-,-,-,-,-,-,-,-,-,-,-,-,-,-,-,-,-,-,-,-,-,-,-,-,-,-,-,-,-,-,-,-,-,-,-,-,-
-,,-,,,,,2019-03,,,,77.173425,,CPCB,56.5,,,,,,Ground Water At Shimla D/S Of Msw Dumping Site,-,31.104606,,,,SHIMLA,,Yamuna Upper,,-,,,,290.6,6,,,Himachal Pradesh,11.7,112,-,28.9,,,54,,,,,,,,,,,3.36,,,,1600,,,,,,0.58,,,,,,,,,,,559,,,,,,,,7.5,,,,,,,180,Ganga Basin,,-,-,-,-,-,-,-,-,-,-,-,-,-,-,-,-,-,-,-,-,-,-,-,-,-,-,-,-,-,-,-,-,-,-,-,-,-,-,-,-,-,-,-,-,-,-,-,-,-,-,-,-,-,-,-,-,-,-,-,-,-,-,-,-,-,-,-,-,-,-,-,-,-,-,-,-,-,-,-,-
-,,-,,,,,2019-03,,,,77.096698,,CPCB,,,,,,,Ground Water At Solan-D/S Of Msw Dumping Site Salogra,-,30.90541,,,,SOLAN,,Yamuna Upper,,-,,,,230,,,,Himachal Pradesh,-,8,-,3,,,31,,,,,,,,,,,,,,,2,,,,,,0.2,,,,,,,,,,,348,,,,,,,,7.5,,,,,,,130,Ganga Basin,,-,-,-,-,-,-,-,-,-,-,-,-,-,-,-,-,-,-,-,-,-,-,-,-,-,-,-,-,-,-,-,-,-,-,-,-,-,-,-,-,-,-,-,-,-,-,-,-,-,-,-,-,-,-,-,-,-,-,-,-,-,-,-,-,-,-,-,-,-,-,-,-,-,-,-,-,-,-,-,-
-,7.56,-,,,,,2019-03,,,,77.88916667,,Uttarakhand,,,,,,7.41,Nagar Nigam Tubewell,-,29.83361111,,,,Haridwar,,Above Ramganga Confluence,,-,,,,250,,,,Uttarakhand,74,,-,0.47,,,20,44.1,,,,,0.03,,,,,,,,1,,,18,,,,,,,184,,,,,,,,516,,,,0.25,,,,7.56,,2.3,,516,,,122,Ganga Basin,,-,-,-,-,-,-,-,-,-,-,-,-,-,-,-,-,-,-,-,-,-,-,-,-,-,-,-,-,-,-,-,-,-,-,-,-,-,-,-,-,-,-,-,-,-,-,-,-,-,-,-,-,-,-,-,-,-,-,-,-,-,-,-,-,-,-,-,-,-,-,-,-,-,-,-,-,-,-,-,-
-,,-,,,,,2019-03,,,,73.686478,,CPCB,40,,,,,,Swaroop Nagar Udaipur,-,24.589079,,,,UDAIPUR,,Banas,,-,,,,478,39,,,Rajasthan,23.4,28.4,-,4.2,,,172,,,,,,,,,,,2.28,,,,120,,,,,,0.82,,,,,,,,,,,630,,,,,,,,8.8,,,,,,,172,Ganga Basin,,-,-,-,-,-,-,-,-,-,-,-,-,-,-,-,-,-,-,-,-,-,-,-,-,-,-,-,-,-,-,-,-,-,-,-,-,-,-,-,-,-,-,-,-,-,-,-,-,-,-,-,-,-,-,-,-,-,-,-,-,-,-,-,-,-,-,-,-,-,-,-,-,-,-,-,-,-,-,-,-
-,,-,,,,,2019-04,,,,80.892925,,CPCB,112,,,,0.05,,Aishbagh Industrial Area At Lucknow Near M/S Eveready Industries Ltd. Lucknow U.P,-,26.839986,,,,LUCKNOW,,Gomti,,-,,,,338,2,,,Uttar Pradesh,210,6,-,2,,,98,,0.0152,,,0.01,,,,,,4.28,,,,49,,,,,,0.92,,,,,,,,,,,520,0.03,,,,,,,7.2,,0.03,,,,,326,Ganga Basin,,-,-,-,-,-,-,-,-,-,-,-,-,-,-,-,-,-,-,-,-,-,-,-,-,-,-,-,-,-,-,-,-,-,-,-,-,-,-,-,-,-,-,-,-,-,-,-,-,-,-,-,-,-,-,-,-,-,-,-,-,-,-,-,-,-,-,-,-,-,-,-,-,-,-,-,-,-,-,-,-
-,,-,,,,,2019-04,,,,88.271836,,CPCB,30.8,,,,0.01,,Amtola On Diamond Harbour Road 24 Parganas (S),-,22.369025,,,,SOUTH 24 PARGANAS,,Bhagirathi and others (Ganga Lower),,-,,,,5234,,,,West Bengal,148.6,19.6,-,40.1,,,2499.2,,0.02,,,0.06,,,,,,,,,,,,,,,,0.78,,,,,,,,,,,9146,0.1,,,,,,,7.8,0.01,1.2,,,,,920,Ganga Basin,,-,-,-,-,-,-,-,-,-,-,-,-,-,-,-,-,-,-,-,-,-,-,-,-,-,-,-,-,-,-,-,-,-,-,-,-,-,-,-,-,-,-,-,-,-,-,-,-,-,-,-,-,-,-,-,-,-,-,-,-,-,-,-,-,-,-,-,-,-,-,-,-,-,-,-,-,-,-,-,-
-,,-,,,,,2019-04,,,,80.809994,,CPCB,280,,,,0.05,,At Industrial Area Fatehpur,-,25.920075,,,,FATEHPUR,,Yamuna Lower,,-,,,,347,2,,,Uttar Pradesh,196,,-,5,,,84,,0.0148,,,0.06,,,,,,1.61,,,,2,,,,,,0.49,,,,,,,,,,,1673,0.08,,,,,,,7.1,,0.44,,,,,388,Ganga Basin,,-,-,-,-,-,-,-,-,-,-,-,-,-,-,-,-,-,-,-,-,-,-,-,-,-,-,-,-,-,-,-,-,-,-,-,-,-,-,-,-,-,-,-,-,-,-,-,-,-,-,-,-,-,-,-,-,-,-,-,-,-,-,-,-,-,-,-,-,-,-,-,-,-,-,-,-,-,-,-,-
-,,-,,,,,2019-04,,,,88.420875,,CPCB,32,,,,,,Barrakpore Municipality,-,22.695703,,,,NORTH 24 PARGANAS,,Bhagirathi and others (Ganga Lower),,-,,,,304,,,,West Bengal,21,,-,1.1,,,13.7,,0.02,,,0.06,,,,,,0.49,,,,,,,,,,0.49,,,,,,,,,,,385,0.1,,,,,,,7.5,0.01,0.06,,,,,196,Ganga Basin,,-,-,-,-,-,-,-,-,-,-,-,-,-,-,-,-,-,-,-,-,-,-,-,-,-,-,-,-,-,-,-,-,-,-,-,-,-,-,-,-,-,-,-,-,-,-,-,-,-,-,-,-,-,-,-,-,-,-,-,-,-,-,-,-,-,-,-,-,-,-,-,-,-,-,-,-,-,-,-,-
-,,-,,,,,2019-04,,,,88.374953,,CPCB,38,,,,,,Barsat Municipality North 24-P West Bengal,-,22.764606,,,,NORTH 24 PARGANAS,,Bhagirathi and others (Ganga Lower),,-,,,,336,,,,West Bengal,22,8.2,-,2.8,,,24.5,,0.02,,,0.06,,,,,,0.37,,,,,,,,,,0.2,,,,,,,,,,,377,0.1,,,,,,,7.9,0.01,0.06,,,,,122,Ganga Basin,,-,-,-,-,-,-,-,-,-,-,-,-,-,-,-,-,-,-,-,-,-,-,-,-,-,-,-,-,-,-,-,-,-,-,-,-,-,-,-,-,-,-,-,-,-,-,-,-,-,-,-,-,-,-,-,-,-,-,-,-,-,-,-,-,-,-,-,-,-,-,-,-,-,-,-,-,-,-,-,-
-,,-,,,,,2019-04,,,,88.309361,,CPCB,50.8,,,,0.01,,Behala Calcutta West Bengal,-,22.497806,,,,SOUTH 24 PARGANAS,,Bhagirathi and others (Ganga Lower),,-,,,,634,2,,,West Bengal,26.2,,-,13.7,,,110,,0.02,,,0.06,,,,,,,,,,2,,,,,,0.39,,,,,,,,,,,966,0.1,,,,,,,8.2,0.01,1.8,,,,,360,Ganga Basin,,-,-,-,-,-,-,-,-,-,-,-,-,-,-,-,-,-,-,-,-,-,-,-,-,-,-,-,-,-,-,-,-,-,-,-,-,-,-,-,-,-,-,-,-,-,-,-,-,-,-,-,-,-,-,-,-,-,-,-,-,-,-,-,-,-,-,-,-,-,-,-,-,-,-,-,-,-,-,-,-
-,,-,,,,,2019-04,,,,87.683064,,CPCB,56,,,,,,Bolpur Near Railway Station,-,23.668756,,,,BIRBHUM,,Bhagirathi and others (Ganga Lower),,-,,,,264,2,,,West Bengal,33.6,6.8,-,2.8,,,46.8,,,,,,,,,,,0.92,,,,2,,,,,,0.25,,,,,,,,,,,569,,,,,,,,8.1,,,,,,,410,Ganga Basin,,-,-,-,-,-,-,-,-,-,-,-,-,-,-,-,-,-,-,-,-,-,-,-,-,-,-,-,-,-,-,-,-,-,-,-,-,-,-,-,-,-,-,-,-,-,-,-,-,-,-,-,-,-,-,-,-,-,-,-,-,-,-,-,-,-,-,-,-,-,-,-,-,-,-,-,-,-,-,-,-
-,,-,,,,,2019-04,,,,76.862693,,CPCB,76.8,,,,,,Borewell At Ro Of Rspcb Bhiwadi Tijara Alwar,-,28.205564,,,,ALWAR,,Yamuna Upper,,-,,,,1686,3,,,Rajasthan,42.9,7.5,-,,,,476,,,,,,,,,,,1.82,,,,3,,,,,,0.82,,,,,,,,,,,2300,,,,,,,,7.9,,,,,,,144,Ganga Basin,,-,-,-,-,-,-,-,-,-,-,-,-,-,-,-,-,-,-,-,-,-,-,-,-,-,-,-,-,-,-,-,-,-,-,-,-,-,-,-,-,-,-,-,-,-,-,-,-,-,-,-,-,-,-,-,-,-,-,-,-,-,-,-,-,-,-,-,-,-,-,-,-,-,-,-,-,-,-,-,-
-,,-,,,,,2019-04,,,,76.829899,,CPCB,84.8,,,,,,Borewell At Star Hospital Infront Of Stp Bhiwadi Tijara Alwar,-,28.207366,,,,ALWAR,,Yamuna Upper,,-,,,,1612,3,,,Rajasthan,33.2,14.2,-,,,,296,,,,,,,,,,,1.84,,,,3,,,,,,1.26,,,,,,,,,,,2200,,,,,,,,8,,,,,,,304,Ganga Basin,,-,-,-,-,-,-,-,-,-,-,-,-,-,-,-,-,-,-,-,-,-,-,-,-,-,-,-,-,-,-,-,-,-,-,-,-,-,-,-,-,-,-,-,-,-,-,-,-,-,-,-,-,-,-,-,-,-,-,-,-,-,-,-,-,-,-,-,-,-,-,-,-,-,-,-,-,-,-,-,-
-,,-,,,,,2019-04,,,,76.828816,,CPCB,108.8,,,,,,Borewell In Cetp Premises Bhiwadi Tijara Alwar,-,28.208731,,,,ALWAR,,Yamuna Upper,,-,,,,1786,3,,,Rajasthan,72.2,16.7,-,,,,380,,,,,,,,,,,1.76,,,,7,,,,,,0.96,,,,,,,,,,,2500,,,,,,,,7.9,,,,,,,180,Ganga Basin,,-,-,-,-,-,-,-,-,-,-,-,-,-,-,-,-,-,-,-,-,-,-,-,-,-,-,-,-,-,-,-,-,-,-,-,-,-,-,-,-,-,-,-,-,-,-,-,-,-,-,-,-,-,-,-,-,-,-,-,-,-,-,-,-,-,-,-,-,-,-,-,-,-,-,-,-,-,-,-,-
-,,-,,,,,2019-04,,,,76.686296,,CPCB,62.4,,,,,,Bore Well In Modi Alkalis & Chemicals Mia Alwar Rajasthan,-,27.507397,,,,ALWAR,,Yamuna Middle,,-,,,,1468,3,,,Rajasthan,27.3,17.5,-,,,,456,,,,,,,,,,,1.84,,,,4,,,,,,1.06,,,,,,,,,,,2000,,,,,,,,7.3,,,,,,,316,Ganga Basin,,-,-,-,-,-,-,-,-,-,-,-,-,-,-,-,-,-,-,-,-,-,-,-,-,-,-,-,-,-,-,-,-,-,-,-,-,-,-,-,-,-,-,-,-,-,-,-,-,-,-,-,-,-,-,-,-,-,-,-,-,-,-,-,-,-,-,-,-,-,-,-,-,-,-,-,-,-,-,-,-
-,,-,,,,,2019-04,,,,76.855013,,CPCB,51.2,,,,,,Borewell In The House Akram Khan Amlaki Kharganj Indl Area Tijara Alwar,-,27.934998,,,,ALWAR,,Yamuna Upper,,-,,,,1676,3,,,Rajasthan,42.9,32.5,-,,,,428,,,,,,,,,,,3.1,,,,7,,,,,,1.1,,,,,,,,,,,2300,,,,,,,,7.9,,,,,,,320,Ganga Basin,,-,-,-,-,-,-,-,-,-,-,-,-,-,-,-,-,-,-,-,-,-,-,-,-,-,-,-,-,-,-,-,-,-,-,-,-,-,-,-,-,-,-,-,-,-,-,-,-,-,-,-,-,-,-,-,-,-,-,-,-,-,-,-,-,-,-,-,-,-,-,-,-,-,-,-,-,-,-,-,-
-,,-,,,,,2019-04,,,,76.875044,,CPCB,46.4,,,,,,Bore Well M/S R.C. Palace Hotel Bhiwadi Rajasthan,-,28.202831,,,,ALWAR,,Yamuna Upper,,-,,,,1214,3,,,Rajasthan,22.5,10.8,-,,,,224,,,,,,,,,,,2.1,,,,3,,,,,,1.15,,,,,,,,,,,1740,,,,,,,,8,,,,,,,232,Ganga Basin,,-,-,-,-,-,-,-,-,-,-,-,-,-,-,-,-,-,-,-,-,-,-,-,-,-,-,-,-,-,-,-,-,-,-,-,-,-,-,-,-,-,-,-,-,-,-,-,-,-,-,-,-,-,-,-,-,-,-,-,-,-,-,-,-,-,-,-,-,-,-,-,-,-,-,-,-,-,-,-,-
-,,-,,,,,2019-04,,,,73.683501,,CPCB,76.8,,,,,,Borewell Near Main Gate City Palace Near Sheetla Mata Temple Udaipur,-,24.576424,,,,UDAIPUR,,Banas,,-,,,,708,4,,,Rajasthan,24.4,25.6,-,,,,140,,,,,,,,,,,1.7,,,,7,,,,,,0.8,,,,,,,,,,,930,,,,,,,,7.2,,,,,,,144,Ganga Basin,,-,-,-,-,-,-,-,-,-,-,-,-,-,-,-,-,-,-,-,-,-,-,-,-,-,-,-,-,-,-,-,-,-,-,-,-,-,-,-,-,-,-,-,-,-,-,-,-,-,-,-,-,-,-,-,-,-,-,-,-,-,-,-,-,-,-,-,-,-,-,-,-,-,-,-,-,-,-,-,-
-,,-,,,,,2019-04,,,,75.950374,,CPCB,33.6,,,,,,Bore Well Near Msw Site/ Kanota Dam Jaipur,-,26.929023,,,,JAIPUR,,Banas,,-,,,,1878,4,,,Rajasthan,39,15,-,,,,404,,,,,,,,,,,2.74,,,,4,,,,,,1,,,,,,,,,,,2500,,,,,,,,8.5,,,,,,,312,Ganga Basin,,-,-,-,-,-,-,-,-,-,-,-,-,-,-,-,-,-,-,-,-,-,-,-,-,-,-,-,-,-,-,-,-,-,-,-,-,-,-,-,-,-,-,-,-,-,-,-,-,-,-,-,-,-,-,-,-,-,-,-,-,-,-,-,-,-,-,-,-,-,-,-,-,-,-,-,-,-,-,-,-
-,,-,,,,,2019-04,,,,75.629729,,CPCB,35.2,,,,,,Bore Well Near Stp At Gajadharpura Jaipur,-,27.000841,,,,JAIPUR,,Banas,,-,,,,832,4,,,Rajasthan,24.4,10,-,,,,144,,,,,,,,,,,2.1,,,,4,,,,,,0.98,,,,,,,,,,,1070,,,,,,,,7.7,,,,,,,196,Ganga Basin,,-,-,-,-,-,-,-,-,-,-,-,-,-,-,-,-,-,-,-,-,-,-,-,-,-,-,-,-,-,-,-,-,-,-,-,-,-,-,-,-,-,-,-,-,-,-,-,-,-,-,-,-,-,-,-,-,-,-,-,-,-,-,-,-,-,-,-,-,-,-,-,-,-,-,-,-,-,-,-,-
-,,-,,,,,2019-04,,,,73.725713,,CPCB,51.2,,,,,,Borewell Of Bsnl Office Sector-03 Hiran Marg Udaipur,-,24.571892,,,,UDAIPUR,,Banas,,-,,,,1142,4,,,Rajasthan,60.5,18.4,-,,,,228,,,,,,,,,,,2.46,,,,7,,,,,,1.02,,,,,,,,,,,1510,,,,,,,,7.7,,,,,,,136,Ganga Basin,,-,-,-,-,-,-,-,-,-,-,-,-,-,-,-,-,-,-,-,-,-,-,-,-,-,-,-,-,-,-,-,-,-,-,-,-,-,-,-,-,-,-,-,-,-,-,-,-,-,-,-,-,-,-,-,-,-,-,-,-,-,-,-,-,-,-,-,-,-,-,-,-,-,-,-,-,-,-,-,-
-,,-,,,,,2019-04,,,,76.875006,,CPCB,44.8,,,,,,Bore Well Office Of Raj. Housing Board Bhiwadi Rajasthan,-,28.202053,,,,ALWAR,,Yamuna Upper,,-,,,,1308,3,,,Rajasthan,28.3,8.3,-,,,,304,,,,,,,,,,,1.76,,,,3,,,,,,0.96,,,,,,,,,,,1800,,,,,,,,7.9,,,,,,,212,Ganga Basin,,-,-,-,-,-,-,-,-,-,-,-,-,-,-,-,-,-,-,-,-,-,-,-,-,-,-,-,-,-,-,-,-,-,-,-,-,-,-,-,-,-,-,-,-,-,-,-,-,-,-,-,-,-,-,-,-,-,-,-,-,-,-,-,-,-,-,-,-,-,-,-,-,-,-,-,-,-,-,-,-
-,,-,,,,,2019-04,,,,76.861459,,CPCB,54.4,,,,,,Borewell Of Jyoti Uchch Madhymic Vidhyalaya Nayagaon Rampur Mundana Bhiwadi,-,28.198269,,,,ALWAR,,Yamuna Upper,,-,,,,1072,4,,,Rajasthan,36.1,7.5,-,,,,172,,,,,,,,,,,2,,,,4,,,,,,0.98,,,,,,,,,,,1470,,,,,,,,8,,,,,,,260,Ganga Basin,,-,-,-,-,-,-,-,-,-,-,-,-,-,-,-,-,-,-,-,-,-,-,-,-,-,-,-,-,-,-,-,-,-,-,-,-,-,-,-,-,-,-,-,-,-,-,-,-,-,-,-,-,-,-,-,-,-,-,-,-,-,-,-,-,-,-,-,-,-,-,-,-,-,-,-,-,-,-,-,-
-,,-,,,,,2019-04,,,,76.781972,,CPCB,28.8,,,,,,Bore Well Of M/S Kundan Edible Food Product Khuskhera Rajasthan,-,28.102011,,,,ALWAR,,Yamuna Upper,,-,,,,694,3,,,Rajasthan,15.6,7.5,-,,,,124,,,,,,,,,,,2.8,,,,3,,,,,,0.98,,,,,,,,,,,960,,,,,,,,7.9,,,,,,,228,Ganga Basin,,-,-,-,-,-,-,-,-,-,-,-,-,-,-,-,-,-,-,-,-,-,-,-,-,-,-,-,-,-,-,-,-,-,-,-,-,-,-,-,-,-,-,-,-,-,-,-,-,-,-,-,-,-,-,-,-,-,-,-,-,-,-,-,-,-,-,-,-,-,-,-,-,-,-,-,-,-,-,-,-
-,,-,,,,,2019-04,,,,76.774783,,CPCB,32,,,,,,Bore Well Of M/S Modern Public School Bhiwadi Rajasthan,-,28.130792,,,,ALWAR,,Yamuna Upper,,-,,,,998,3,,,Rajasthan,21.5,36.7,-,,,,244,,,,,,,,,,,2.28,,,,7,,,,,,0.98,,,,,,,,,,,1340,,,,,,,,8,,,,,,,160,Ganga Basin,,-,-,-,-,-,-,-,-,-,-,-,-,-,-,-,-,-,-,-,-,-,-,-,-,-,-,-,-,-,-,-,-,-,-,-,-,-,-,-,-,-,-,-,-,-,-,-,-,-,-,-,-,-,-,-,-,-,-,-,-,-,-,-,-,-,-,-,-,-,-,-,-,-,-,-,-,-,-,-,-
-,,-,,,,,2019-04,,,,75.712538,,CPCB,184,,,,,,Borewell Of Scion Exports Pvt.Ltd Sarna Doongat Jaipur,-,27.006153,,,,JAIPUR,,Banas,,-,,,,3746,4,,,Rajasthan,81,25,-,,,,1392,,,,,,,,,,,2.04,,,,4,,,,,,1.1,,,,,,,,,,,5000,,,,,,,,7.6,,,,,,,148,Ganga Basin,,-,-,-,-,-,-,-,-,-,-,-,-,-,-,-,-,-,-,-,-,-,-,-,-,-,-,-,-,-,-,-,-,-,-,-,-,-,-,-,-,-,-,-,-,-,-,-,-,-,-,-,-,-,-,-,-,-,-,-,-,-,-,-,-,-,-,-,-,-,-,-,-,-,-,-,-,-,-,-,-
-,,-,,,,,2019-04,,,,75.782738,,CPCB,76.2,,,,,,Borewell Of Vkia Recreational Club Jaipur,-,26.98402,,,,JAIPUR,,Banas,,-,,,,768,4,,,Rajasthan,36.1,8.3,-,,,,188,,,,,,,,,,,2.36,,,,4,,,,,,0.76,,,,,,,,,,,1000,,,,,,,,7.7,,,,,,,124,Ganga Basin,,-,-,-,-,-,-,-,-,-,-,-,-,-,-,-,-,-,-,-,-,-,-,-,-,-,-,-,-,-,-,-,-,-,-,-,-,-,-,-,-,-,-,-,-,-,-,-,-,-,-,-,-,-,-,-,-,-,-,-,-,-,-,-,-,-,-,-,-,-,-,-,-,-,-,-,-,-,-,-,-
-,,-,,,,,2019-04,,,,76.816636,,CPCB,38.4,,,,,,Bore Well Sh. Prem Chand Village Phalsha Mode Ria Chopnadi Rajasthan,-,28.160644,,,,ALWAR,,Yamuna Upper,,-,,,,1082,3,,,Rajasthan,26.4,8.3,-,,,,232,,,,,,,,,,,2.06,,,,3,,,,,,0.74,,,,,,,,,,,1490,,,,,,,,7.9,,,,,,,268,Ganga Basin,,-,-,-,-,-,-,-,-,-,-,-,-,-,-,-,-,-,-,-,-,-,-,-,-,-,-,-,-,-,-,-,-,-,-,-,-,-,-,-,-,-,-,-,-,-,-,-,-,-,-,-,-,-,-,-,-,-,-,-,-,-,-,-,-,-,-,-,-,-,-,-,-,-,-,-,-,-,-,-,-
-,,-,,,,,2019-04,,,,76.824786,,CPCB,54.4,,,,,,Bore Well Sh. Umesh Kumar S/O Sh. Horidwari Ram 3a-16 Uit Bhiwadi Rajasthan,-,28.156508,,,,ALWAR,,Yamuna Upper,,-,,,,762,3,,,Rajasthan,41,7.5,-,,,,84,,,,,,,,,,,2.06,,,,3,,,,,,0.86,,,,,,,,,,,1010,,,,,,,,7.7,,,,,,,288,Ganga Basin,,-,-,-,-,-,-,-,-,-,-,-,-,-,-,-,-,-,-,-,-,-,-,-,-,-,-,-,-,-,-,-,-,-,-,-,-,-,-,-,-,-,-,-,-,-,-,-,-,-,-,-,-,-,-,-,-,-,-,-,-,-,-,-,-,-,-,-,-,-,-,-,-,-,-,-,-,-,-,-,-
-,,-,,,,,2019-04,,,,85.174164,,CPCB,16,,,,,,Bore Well Water At Bhut Nath Road Water Tank Sec-3 Kankarbaghpatna,-,25.593237,,,,PATNA,,Gandak and others,,-,,,,156,2,,,Bihar,35,,-,,,,25,,,,,,,,,,,,,,,2,,,,,,0.67,,,,,,,,,,,478,,,,,,,,7.2,,,,,,,244,Ganga Basin,,-,-,-,-,-,-,-,-,-,-,-,-,-,-,-,-,-,-,-,-,-,-,-,-,-,-,-,-,-,-,-,-,-,-,-,-,-,-,-,-,-,-,-,-,-,-,-,-,-,-,-,-,-,-,-,-,-,-,-,-,-,-,-,-,-,-,-,-,-,-,-,-,-,-,-,-,-,-,-,-
-,,-,,,,,2019-04,,,,85.253317,,CPCB,15.2,,,,,,Bore Well Water At Katra Bazar Water Tank Malsalami Patna,-,25.579122,,,,PATNA,,Gandak and others,,-,,,,134,2,,,Bihar,19.9,,-,,,,33,,,,,,,,,,,,,,,2,,,,,,0.67,,,,,,,,,,,527,,,,,,,,7.4,,,,,,,226,Ganga Basin,,-,-,-,-,-,-,-,-,-,-,-,-,-,-,-,-,-,-,-,-,-,-,-,-,-,-,-,-,-,-,-,-,-,-,-,-,-,-,-,-,-,-,-,-,-,-,-,-,-,-,-,-,-,-,-,-,-,-,-,-,-,-,-,-,-,-,-,-,-,-,-,-,-,-,-,-,-,-,-,-
-,,-,,,,,2019-04,,,,75.675284,,CPCB,128,,,,0.01,,Borewell Water At Village Tarpur Sector-Ii Pithampur Industrial Area,-,22.612355,,,,DHAR,,Chambal Upper,,-,,,,279,2,,,Madhya Pradesh,44,12.5,-,1.2,,,68.9,,0.02,,,0.06,,,,,,2.8,,,,5,,,,,,0.9,,,,,,,,,,,465,,,,,,,,8.5,,0.06,,,,,152,Ganga Basin,,-,-,-,-,-,-,-,-,-,-,-,-,-,-,-,-,-,-,-,-,-,-,-,-,-,-,-,-,-,-,-,-,-,-,-,-,-,-,-,-,-,-,-,-,-,-,-,-,-,-,-,-,-,-,-,-,-,-,-,-,-,-,-,-,-,-,-,-,-,-,-,-,-,-,-,-,-,-,-,-
-,,-,,,,,2019-04,,,,85.09125,,CPCB,27.2,,,,,,Bore Well Water From Igims Campus Patna,-,25.611612,,,,PATNA,,Gandak and others,,-,,,,126,2,,,Bihar,19.4,,-,,,,20,,,,,,,,,,,,,,,2,,,,,,0.29,,,,,,,,,,,528,,,,,,,,7.2,,,,,,,248,Ganga Basin,,-,-,-,-,-,-,-,-,-,-,-,-,-,-,-,-,-,-,-,-,-,-,-,-,-,-,-,-,-,-,-,-,-,-,-,-,-,-,-,-,-,-,-,-,-,-,-,-,-,-,-,-,-,-,-,-,-,-,-,-,-,-,-,-,-,-,-,-,-,-,-,-,-,-,-,-,-,-,-,-
-,,-,,,,,2019-04,,,,85.136893,,CPCB,20.8,,,,,,Bore Well Water In Campus Of Patna Water Board Head Office Near High Court Patna,-,25.609619,,,,PATNA,,Gandak and others,,-,,,,144,2,,,Bihar,20.9,,-,,,,23,,,,,,,,,,,,,,,2,,,,,,0.54,,,,,,,,,,,544,,,,,,,,7.1,,,,,,,112,Ganga Basin,,-,-,-,-,-,-,-,-,-,-,-,-,-,-,-,-,-,-,-,-,-,-,-,-,-,-,-,-,-,-,-,-,-,-,-,-,-,-,-,-,-,-,-,-,-,-,-,-,-,-,-,-,-,-,-,-,-,-,-,-,-,-,-,-,-,-,-,-,-,-,-,-,-,-,-,-,-,-,-,-
-,,-,,,,,2019-04,,,,88.871314,,CPCB,24,,,,0.01,,Bsirhat Municipality,-,22.662767,,,,NORTH 24 PARGANAS,,Bhagirathi and others (Ganga Lower),,-,,,,510,,,,West Bengal,9,12.4,-,1.3,,,381.6,,0.02,,,,,,,,,0.89,,,,,,,,,,0.2,,,,,,,,,,,1788,0.1,,,,,,,8.3,22.5,0.06,,,,,338,Ganga Basin,,-,-,-,-,-,-,-,-,-,-,-,-,-,-,-,-,-,-,-,-,-,-,-,-,-,-,-,-,-,-,-,-,-,-,-,-,-,-,-,-,-,-,-,-,-,-,-,-,-,-,-,-,-,-,-,-,-,-,-,-,-,-,-,-,-,-,-,-,-,-,-,-,-,-,-,-,-,-,-,-
-,,-,,,,,2019-04,,,,88.25695,,CPCB,13.9,,,,0.01,,Central Howrah-Residentail Area,-,22.594558,,,,HOWRAH,,Bhagirathi and others (Ganga Lower),,-,,,,1372,,,,West Bengal,52.3,,-,175,,,412.4,,0.02,,,0.06,,,,,,,,,,,,,,,,0.72,,,,,,,,,,,2634,0.1,,,,,,,7.3,0.01,1.29,,,,,610,Ganga Basin,,-,-,-,-,-,-,-,-,-,-,-,-,-,-,-,-,-,-,-,-,-,-,-,-,-,-,-,-,-,-,-,-,-,-,-,-,-,-,-,-,-,-,-,-,-,-,-,-,-,-,-,-,-,-,-,-,-,-,-,-,-,-,-,-,-,-,-,-,-,-,-,-,-,-,-,-,-,-,-,-
-,,-,,,,,2019-04,,,,88.360556,,CPCB,56.9,,,,0.01,,Central Kolkata,-,22.569728,,,,KOLKATA,,Bhagirathi and others (Ganga Lower),,-,,,,634,,,,West Bengal,29,,-,9.2,,,70,,0.02,,,0.06,,,,,,,,,,,,,,,,0.84,,,,,,,,,,,957,0.1,,,,,,,7.9,0.01,0.54,,,,,450,Ganga Basin,,-,-,-,-,-,-,-,-,-,-,-,-,-,-,-,-,-,-,-,-,-,-,-,-,-,-,-,-,-,-,-,-,-,-,-,-,-,-,-,-,-,-,-,-,-,-,-,-,-,-,-,-,-,-,-,-,-,-,-,-,-,-,-,-,-,-,-,-,-,-,-,-,-,-,-,-,-,-,-,-
-,,-,,,,,2019-04,,,,76.19482,,CPCB,72,,,,,,Chaudhary Ka Well Village Paniala Kotaputali Near Associated Alcohol Breveries Ltd Jaipur Rajasthan,-,27.705088,,,,JAIPUR,,Yamuna Upper,,-,,,,814,3,,,Rajasthan,26.4,36.3,-,,,,124,,,,,,,,,,,2.1,,,,3,,,,,,1.16,,,,,,,,,,,1090,,,,,,,,8,,,,,,,212,Ganga Basin,,-,-,-,-,-,-,-,-,-,-,-,-,-,-,-,-,-,-,-,-,-,-,-,-,-,-,-,-,-,-,-,-,-,-,-,-,-,-,-,-,-,-,-,-,-,-,-,-,-,-,-,-,-,-,-,-,-,-,-,-,-,-,-,-,-,-,-,-,-,-,-,-,-,-,-,-,-,-,-,-
-,,-,,,,,2019-04,,,,80.946736,,CPCB,112,,,,0.01,,Chinhat Industrial Area In Lucknow Near M/S India Pesticides Lucknow U.P,-,26.846489,,,,LUCKNOW,,Gomti,,-,,,,631,40,,,Uttar Pradesh,224,10,-,1.6,,,80,,0.0172,,,0.01,,,,,,1.4,,,,350,,,,,,0.98,,,,,,,,,,,963,0.03,,,,,,,7.3,,0.01,,,,,318,Ganga Basin,,-,-,-,-,-,-,-,-,-,-,-,-,-,-,-,-,-,-,-,-,-,-,-,-,-,-,-,-,-,-,-,-,-,-,-,-,-,-,-,-,-,-,-,-,-,-,-,-,-,-,-,-,-,-,-,-,-,-,-,-,-,-,-,-,-,-,-,-,-,-,-,-,-,-,-,-,-,-,-,-
-,,-,,,,,2019-04,,,,88.371281,,CPCB,169.2,,,,0.01,,Cossipore - North Kolkata,-,22.616114,,,,KOLKATA,,Bhagirathi and others (Ganga Lower),,-,,,,1608,,,,West Bengal,88.8,14,-,217,,,549.8,,0.02,,,0.06,,,,,,,,,,,,,,,,0.45,,,,,,,,,,,2642,0.1,,,,,,,7.4,0.01,2.22,,,,,368,Ganga Basin,,-,-,-,-,-,-,-,-,-,-,-,-,-,-,-,-,-,-,-,-,-,-,-,-,-,-,-,-,-,-,-,-,-,-,-,-,-,-,-,-,-,-,-,-,-,-,-,-,-,-,-,-,-,-,-,-,-,-,-,-,-,-,-,-,-,-,-,-,-,-,-,-,-,-,-,-,-,-,-,-
-,,-,,,,,2019-04,,,,88.280619,,CPCB,20,,,,0.01,,Dankuni (Near Coal Complex) West Bengal,-,22.702531,,,,HUGLI,,Bhagirathi and others (Ganga Lower),,-,,,,558,,,,West Bengal,12,,-,2.1,,,66.5,,0.02,,,0.06,,,,,,1,,,,,,,,,,0.65,,,,,,,,,,,999,0.1,,,,,,,8.4,0.01,0.06,,,,,412,Ganga Basin,,-,-,-,-,-,-,-,-,-,-,-,-,-,-,-,-,-,-,-,-,-,-,-,-,-,-,-,-,-,-,-,-,-,-,-,-,-,-,-,-,-,-,-,-,-,-,-,-,-,-,-,-,-,-,-,-,-,-,-,-,-,-,-,-,-,-,-,-,-,-,-,-,-,-,-,-,-,-,-,-
-,,-,,,,,2019-04,,,,81.039583,,CPCB,110,,,,0.01,,Deva Road Industrial Area Chainhat Lko Near Uptron Police Chowki Lucknow,-,26.874128,,,,LUCKNOW,,Gomti,,-,,,,383,2,,,Uttar Pradesh,202,8,-,1.8,,,78,,0.0124,,,0.02,,,,,,1.62,,,,2,,,,,,0.83,,,,,,,,,,,587,0.02,,,,,,,7.3,,0.05,,,,,302,Ganga Basin,,-,-,-,-,-,-,-,-,-,-,-,-,-,-,-,-,-,-,-,-,-,-,-,-,-,-,-,-,-,-,-,-,-,-,-,-,-,-,-,-,-,-,-,-,-,-,-,-,-,-,-,-,-,-,-,-,-,-,-,-,-,-,-,-,-,-,-,-,-,-,-,-,-,-,-,-,-,-,-,-
-,,-,,,,,2019-04,,,,88.4421,,CPCB,157.7,,,,0.01,,Dhapa Calcutta West Bengal,-,22.560214,,,,NORTH 24 PARGANAS,,Bhagirathi and others (Ganga Lower),,-,,,,1430,2,,,West Bengal,63.1,5.7,-,3.6,,,399.9,,0.02,,,0.06,,,,,,,,,,4,,,,,,0.4,,,,,,,,,,,2060,0.1,,,,,,,7.4,0.01,0.06,,,,,360,Ganga Basin,,-,-,-,-,-,-,-,-,-,-,-,-,-,-,-,-,-,-,-,-,-,-,-,-,-,-,-,-,-,-,-,-,-,-,-,-,-,-,-,-,-,-,-,-,-,-,-,-,-,-,-,-,-,-,-,-,-,-,-,-,-,-,-,-,-,-,-,-,-,-,-,-,-,-,-,-,-,-,-,-
-,,-,,,,,2019-04,,,,76.470567,,CPCB,60.8,,,,0.01,,District Collector Baran,-,25.106617,,,,BARAN,,Kali Sindh and others up to Confluence with Parbati,,-,,,,796,4,,,Rajasthan,12.7,26.4,-,,,,112,,0.02,,,0.06,,,,,,1.5,,,,7,,,,,,0.92,,,,,,,,,,,1070,,,,,,,,7.3,,,,,,,204,Ganga Basin,,-,-,-,-,-,-,-,-,-,-,-,-,-,-,-,-,-,-,-,-,-,-,-,-,-,-,-,-,-,-,-,-,-,-,-,-,-,-,-,-,-,-,-,-,-,-,-,-,-,-,-,-,-,-,-,-,-,-,-,-,-,-,-,-,-,-,-,-,-,-,-,-,-,-,-,-,-,-,-,-
-,,-,,,,,2019-04,,,,77.016352,,CPCB,43.2,,,,,,District Collector Karauli,-,26.49281,,,,KARAULI,,Yamuna Middle,,-,,,,1322,3,,,Rajasthan,75.2,20.9,-,,,,236,,,,,,,,,,,1.82,,,,3,,,,,,1.02,,,,,,,,,,,1800,,,,,,,,7.3,,,,,,,256,Ganga Basin,,-,-,-,-,-,-,-,-,-,-,-,-,-,-,-,-,-,-,-,-,-,-,-,-,-,-,-,-,-,-,-,-,-,-,-,-,-,-,-,-,-,-,-,-,-,-,-,-,-,-,-,-,-,-,-,-,-,-,-,-,-,-,-,-,-,-,-,-,-,-,-,-,-,-,-,-,-,-,-,-
-,,-,,,,,2019-04,,,,88.216664,,CPCB,23.5,,,,0.01,,Domjur Howrah West Bengal,-,22.633331,,,,HOWRAH,,Bhagirathi and others (Ganga Lower),,-,,,,970,,,,West Bengal,30.6,,-,1.4,,,16,,0.02,,,0.06,,,,,,,,,,,,,,,,0.28,,,,,,,,,,,738,0.1,,,,,,,7.8,0.01,0.06,,,,,390,Ganga Basin,,-,-,-,-,-,-,-,-,-,-,-,-,-,-,-,-,-,-,-,-,-,-,-,-,-,-,-,-,-,-,-,-,-,-,-,-,-,-,-,-,-,-,-,-,-,-,-,-,-,-,-,-,-,-,-,-,-,-,-,-,-,-,-,-,-,-,-,-,-,-,-,-,-,-,-,-,-,-,-,-
-,,-,,,,,2019-04,,,,87.354791,,CPCB,30.4,,,,,,Durgapur Town Burdwan West Bengal,-,23.512911,,,,PASCHIM BARDHAMAN,,Damodar,,-,,,,152,2,,,West Bengal,18.2,8.8,-,8.3,,,49.9,,,,,,,,,,,,,,,7,,,,,,0.39,,,,,,,,,,,462,,,,,,,,8.3,,,,,,,110,Ganga Basin,,-,-,-,-,-,-,-,-,-,-,-,-,-,-,-,-,-,-,-,-,-,-,-,-,-,-,-,-,-,-,-,-,-,-,-,-,-,-,-,-,-,-,-,-,-,-,-,-,-,-,-,-,-,-,-,-,-,-,-,-,-,-,-,-,-,-,-,-,-,-,-,-,-,-,-,-,-,-,-,-
-,,-,,,,,2019-04,,,,87.311958,,CPCB,31.2,,,,,,Durgapur Town Near Iisco Burdwan West Bengal,-,23.520408,,,,PASCHIM BARDHAMAN,,Damodar,,-,,,,218,,,,West Bengal,18.7,,-,,,,39,,,,,,,,,,,,,,,,,,,,,0.59,,,,,,,,,,,431,,,,,,,,8.2,,,,,,,140,Ganga Basin,,-,-,-,-,-,-,-,-,-,-,-,-,-,-,-,-,-,-,-,-,-,-,-,-,-,-,-,-,-,-,-,-,-,-,-,-,-,-,-,-,-,-,-,-,-,-,-,-,-,-,-,-,-,-,-,-,-,-,-,-,-,-,-,-,-,-,-,-,-,-,-,-,-,-,-,-,-,-,-,-
-,,-,,,,,2019-04,,,,87.309067,,CPCB,88,,,,,,Dwarika At Bishnupur Town,-,23.100489,,,,BANKURA,,Damodar,,-,,,,362,,,,West Bengal,52.8,7.8,-,,,,101.4,,,,,,,,,,,0.78,,,,,,,,,,0.42,,,,,,,,,,,1984,,,,,,,,7.9,,,,,,,370,Ganga Basin,,-,-,-,-,-,-,-,-,-,-,-,-,-,-,-,-,-,-,-,-,-,-,-,-,-,-,-,-,-,-,-,-,-,-,-,-,-,-,-,-,-,-,-,-,-,-,-,-,-,-,-,-,-,-,-,-,-,-,-,-,-,-,-,-,-,-,-,-,-,-,-,-,-,-,-,-,-,-,-,-
-,,-,,,,,2019-04,,,,88.141097,,CPCB,44,,,,197,,English Bazar- Maldah,-,25.010842,,,,MALDAH,,Bhagirathi and others (Ganga Lower),,-,,,,288,,,,West Bengal,18,,-,8.1,,,,,0.02,,,0.06,,,,,,,,,,,,,,,,0.48,,,,,,,,,,,551,0.1,,,,,,,7.9,0.01,0.99,,,,,290,Ganga Basin,,-,-,-,-,-,-,-,-,-,-,-,-,-,-,-,-,-,-,-,-,-,-,-,-,-,-,-,-,-,-,-,-,-,-,-,-,-,-,-,-,-,-,-,-,-,-,-,-,-,-,-,-,-,-,-,-,-,-,-,-,-,-,-,-,-,-,-,-,-,-,-,-,-,-,-,-,-,-,-,-
-,,-,,,,,2019-04,,,,88.757414,,CPCB,,,,,0.01,,Fulbari Barrage,-,23.4333,,,,NADIA,,Bhagirathi and others (Ganga Lower),,-,,,,23,90,,,West Bengal,-,22,-,2.4,,,,,0.02,,,0.06,,,,,,1.11,,,,140,,,,,,0.29,,,,,,,,,,,261,0.1,,,,,,,7.4,0.01,0.82,,,,,,Ganga Basin,,-,-,-,-,-,-,-,-,-,-,-,-,-,-,-,-,-,-,-,-,-,-,-,-,-,-,-,-,-,-,-,-,-,-,-,-,-,-,-,-,-,-,-,-,-,-,-,-,-,-,-,-,-,-,-,-,-,-,-,-,-,-,-,-,-,-,-,-,-,-,-,-,-,-,-,-,-,-,-,-
-,,-,,,,,2019-04,,,,88.396753,,CPCB,30.8,,,,0.01,,Garia Calcutta West Bengal,-,22.462928,,,,SOUTH 24 PARGANAS,,Bhagirathi and others (Ganga Lower),,-,,,,580,,,,West Bengal,37.4,10.6,-,2.3,,,126,,0.02,,,0.06,,,,,,,,,,,,,,,,0.29,,,,,,,,,,,939,0.1,,,,,,,7.7,0.01,1.67,,,,,330,Ganga Basin,,-,-,-,-,-,-,-,-,-,-,-,-,-,-,-,-,-,-,-,-,-,-,-,-,-,-,-,-,-,-,-,-,-,-,-,-,-,-,-,-,-,-,-,-,-,-,-,-,-,-,-,-,-,-,-,-,-,-,-,-,-,-,-,-,-,-,-,-,-,-,-,-,-,-,-,-,-,-,-,-
-,,-,,,,,2019-04,,,,87.781078,,CPCB,32,,,,0.01,,Geokhali Bunglow Midnapur-East,-,21.936833,,,,MEDINIPUR,,Damodar,,-,,,,1798,,,,West Bengal,38.9,8.1,-,192,,,117.4,,0.02,,,0.06,,,,,,,,,,,,,,,,0.35,,,,,,,,,,,1029,0.1,,,,,,,7.8,0.01,0.97,,,,,393.7,Ganga Basin,,-,-,-,-,-,-,-,-,-,-,-,-,-,-,-,-,-,-,-,-,-,-,-,-,-,-,-,-,-,-,-,-,-,-,-,-,-,-,-,-,-,-,-,-,-,-,-,-,-,-,-,-,-,-,-,-,-,-,-,-,-,-,-,-,-,-,-,-,-,-,-,-,-,-,-,-,-,-,-,-
-,,-,,,,,2019-04,,,,83.373167,,CPCB,130,,,,,,Gorakhpur Industrial Development Authority Area (Gida) Gorakhpur,-,26.760553,,,,GORAKHPUR,,Ghaghara,,-,,,,324,,,,Uttar Pradesh,110,14,-,18,,,34,,,,,,,,,,,,,,,,,,,,,,,,,,,,,,,,560,,,,,,,,5.6,,0.34,,,,,,Ganga Basin,,-,-,-,-,-,-,-,-,-,-,-,-,-,-,-,-,-,-,-,-,-,-,-,-,-,-,-,-,-,-,-,-,-,-,-,-,-,-,-,-,-,-,-,-,-,-,-,-,-,-,-,-,-,-,-,-,-,-,-,-,-,-,-,-,-,-,-,-,-,-,-,-,-,-,-,-,-,-,-,-
-,,-,,,,,2019-04,,,,73.686373,,CPCB,49.6,,,,,,Goverdhan Sagar Udaipur,-,24.542657,,,,UDAIPUR,,Banas,,-,,,,926,20,,,Rajasthan,32.2,48.8,-,2.8,,,230,,,,,,,,,,,1.84,,,,120,,,,,,0.92,,,,,,,,,,,1190,,,,,,,,8.8,,,,,,,232,Ganga Basin,,-,-,-,-,-,-,-,-,-,-,-,-,-,-,-,-,-,-,-,-,-,-,-,-,-,-,-,-,-,-,-,-,-,-,-,-,-,-,-,-,-,-,-,-,-,-,-,-,-,-,-,-,-,-,-,-,-,-,-,-,-,-,-,-,-,-,-,-,-,-,-,-,-,-,-,-,-,-,-,-
-,,-,,,,,2019-04,,,,78.150386,,CPCB,120,,,,,,Ground Water At Bhagwan Industrial Area- 1,-,29.948484,,,,Haridwar,,Above Ramganga Confluence,,-,,,,1140,,,,Uttarakhand,110,,-,,,,68,,,,,,,,,,,,,,,2,,,,,,,,,,,,,,,,,1770,,,,,,,,7.1,,,,,,,380,Ganga Basin,,-,-,-,-,-,-,-,-,-,-,-,-,-,-,-,-,-,-,-,-,-,-,-,-,-,-,-,-,-,-,-,-,-,-,-,-,-,-,-,-,-,-,-,-,-,-,-,-,-,-,-,-,-,-,-,-,-,-,-,-,-,-,-,-,-,-,-,-,-,-,-,-,-,-,-,-,-,-,-,-
-,,-,,,,,2019-04,,,,78.14126,,CPCB,188,,,,,,Ground Water At Bhagwan Industrial Area- 2 Sikanderpur Lakheswari Roorkee Haridwar,-,29.937368,,,,Haridwar,,Above Ramganga Confluence,,-,,,,718,,,,Uttarakhand,24,,-,,,,38,,,,,,,,,,,,,,,2,,,,,,,,,,,,,,,,,1044,,,,,,,,7.2,,,,,,,425,Ganga Basin,,-,-,-,-,-,-,-,-,-,-,-,-,-,-,-,-,-,-,-,-,-,-,-,-,-,-,-,-,-,-,-,-,-,-,-,-,-,-,-,-,-,-,-,-,-,-,-,-,-,-,-,-,-,-,-,-,-,-,-,-,-,-,-,-,-,-,-,-,-,-,-,-,-,-,-,-,-,-,-,-
-,,-,,,,,2019-04,,,,79.076472,,CPCB,122,,,,,,Ground Water At Kashipur Bajpur Road- 1,-,29.196486,,,,UDHAM SINGH NAGAR,,Ramganga,,-,,,,221,,,,Uttarakhand,102,,-,,,,18,,,,,,,,,,,,,,,,,,,,,,,,,,,,,,,,490,,,,,,,,7.3,,,,,,,224,Ganga Basin,,-,-,-,-,-,-,-,-,-,-,-,-,-,-,-,-,-,-,-,-,-,-,-,-,-,-,-,-,-,-,-,-,-,-,-,-,-,-,-,-,-,-,-,-,-,-,-,-,-,-,-,-,-,-,-,-,-,-,-,-,-,-,-,-,-,-,-,-,-,-,-,-,-,-,-,-,-,-,-,-
-,,-,,,,,2019-04,,,,79.062656,,CPCB,126,,,,,,Ground Water At Kashipur Bajpur Road- 2,-,29.207394,,,,UDHAM SINGH NAGAR,,Ramganga,,-,,,,228,,,,Uttarakhand,108,,-,,,,18,,,,,,,,,,,,,,,,,,,,,,,,,,,,,,,,340,,,,,,,,7.2,,,,,,,182,Ganga Basin,,-,-,-,-,-,-,-,-,-,-,-,-,-,-,-,-,-,-,-,-,-,-,-,-,-,-,-,-,-,-,-,-,-,-,-,-,-,-,-,-,-,-,-,-,-,-,-,-,-,-,-,-,-,-,-,-,-,-,-,-,-,-,-,-,-,-,-,-,-,-,-,-,-,-,-,-,-,-,-,-
-,,-,,,,,2019-04,,,,78.961883,,CPCB,122,,,,,,Ground Water At Kashipur Moradabad Road- 1,-,29.210422,,,,UDHAM SINGH NAGAR,,Ramganga,,-,,,,218,,,,Uttarakhand,116,,-,,,,22,,,,,,,,,,,,,,,,,,,,,,,,,,,,,,,,420,,,,,,,,7.3,,,,,,,208,Ganga Basin,,-,-,-,-,-,-,-,-,-,-,-,-,-,-,-,-,-,-,-,-,-,-,-,-,-,-,-,-,-,-,-,-,-,-,-,-,-,-,-,-,-,-,-,-,-,-,-,-,-,-,-,-,-,-,-,-,-,-,-,-,-,-,-,-,-,-,-,-,-,-,-,-,-,-,-,-,-,-,-,-
-,,-,,,,,2019-04,,,,78.959428,,CPCB,57,,,,,,Ground Water At Kashipur Moradabad Road- 2,-,29.204137,,,,UDHAM SINGH NAGAR,,Ramganga,,-,,,,228,,,,Uttarakhand,101,,-,,,,24,,,,,,,,,,,,,,,,,,,,,,,,,,,,,,,,320,,,,,,,,7.3,,,,,,,270,Ganga Basin,,-,-,-,-,-,-,-,-,-,-,-,-,-,-,-,-,-,-,-,-,-,-,-,-,-,-,-,-,-,-,-,-,-,-,-,-,-,-,-,-,-,-,-,-,-,-,-,-,-,-,-,-,-,-,-,-,-,-,-,-,-,-,-,-,-,-,-,-,-,-,-,-,-,-,-,-,-,-,-,-
-,,-,,,,,2019-04,,,,79.489739,,CPCB,108,,,,,,Ground Water At Pantnagar Industrial Area- 1,-,29.021039,,,,UDHAM SINGH NAGAR,,Ramganga,,-,,,,192.4,,,,Uttarakhand,96,,-,,,,16,,,,,,,,,,,,,,,,,,,,,,,,,,,,,,,,306,,,,,,,,7.6,,,,,,,218,Ganga Basin,,-,-,-,-,-,-,-,-,-,-,-,-,-,-,-,-,-,-,-,-,-,-,-,-,-,-,-,-,-,-,-,-,-,-,-,-,-,-,-,-,-,-,-,-,-,-,-,-,-,-,-,-,-,-,-,-,-,-,-,-,-,-,-,-,-,-,-,-,-,-,-,-,-,-,-,-,-,-,-,-
-,,-,,,,,2019-04,,,,79.489739,,CPCB,112,,,,,,Ground Water At Pantnagar Industrial Area- 2,-,29.021039,,,,UDHAM SINGH NAGAR,,Ramganga,,-,,,,205,,,,Uttarakhand,104,,-,,,,24,,,,,,,,,,,,,,,,,,,,,,,,,,,,,,,,320,,,,,,,,7.4,,,,,,,166,Ganga Basin,,-,-,-,-,-,-,-,-,-,-,-,-,-,-,-,-,-,-,-,-,-,-,-,-,-,-,-,-,-,-,-,-,-,-,-,-,-,-,-,-,-,-,-,-,-,-,-,-,-,-,-,-,-,-,-,-,-,-,-,-,-,-,-,-,-,-,-,-,-,-,-,-,-,-,-,-,-,-,-,-
-,,-,,,,,2019-04,,,,77.579269,,CPCB,34,,,,0.63,,Ground Water At Paonta Sahib Industrial Area,-,30.436053,,,,SIRMAUR,,Yamuna Upper,,-,,,,457,2,,,Himachal Pradesh,29.6,,-,,,,51.1,,0.02,,,0.06,,,,,,1.82,,,,2,,,,,,0.39,,,,,,,,,,,663,,,,,,,,7.9,,0.19,,,,,355,Ganga Basin,,-,-,-,-,-,-,-,-,-,-,-,-,-,-,-,-,-,-,-,-,-,-,-,-,-,-,-,-,-,-,-,-,-,-,-,-,-,-,-,-,-,-,-,-,-,-,-,-,-,-,-,-,-,-,-,-,-,-,-,-,-,-,-,-,-,-,-,-,-,-,-,-,-,-,-,-,-,-,-,-
-,,-,,,,,2019-04,,,,77.893711,,CPCB,180,,,,,,Ground Water At Roorkee Industrial Area- 1 Chc Bhagwanpurharidwar,-,29.858692,,,,Haridwar,,Above Ramganga Confluence,,-,,,,576,,,,Uttarakhand,38,,-,,,,52,,,,,,,,,,,,,,,2,,,,,,,,,,,,,,,,,890,,,,,,,,7.2,,,,,,,432,Ganga Basin,,-,-,-,-,-,-,-,-,-,-,-,-,-,-,-,-,-,-,-,-,-,-,-,-,-,-,-,-,-,-,-,-,-,-,-,-,-,-,-,-,-,-,-,-,-,-,-,-,-,-,-,-,-,-,-,-,-,-,-,-,-,-,-,-,-,-,-,-,-,-,-,-,-,-,-,-,-,-,-,-
-,,-,,,,,2019-04,,,,77.888706,,CPCB,90,,,,,,Ground Water At Roorkee Industrial Area- 2 Sunehra,-,29.851446,,,,Haridwar,,Above Ramganga Confluence,,-,,,,380,,,,Uttarakhand,22,,-,,,,50,,,,,,,,,,,,,,,2,,,,,,,,,,,,,,,,,572,,,,,,,,7.1,,,,,,,298,Ganga Basin,,-,-,-,-,-,-,-,-,-,-,-,-,-,-,-,-,-,-,-,-,-,-,-,-,-,-,-,-,-,-,-,-,-,-,-,-,-,-,-,-,-,-,-,-,-,-,-,-,-,-,-,-,-,-,-,-,-,-,-,-,-,-,-,-,-,-,-,-,-,-,-,-,-,-,-,-,-,-,-,-
-,,-,,,,,2019-04,,,,79.533883,,CPCB,122,,,,,,Ground Water At Santipuri Kichha- 1,-,28.97385,,,,UDHAM SINGH NAGAR,,Ramganga,,-,,,,207.8,,,,Uttarakhand,108,,-,,,,22,,,,,,,,,,,,,,,,,,,,,,,,,,,,,,,,350,,,,,,,,7.2,,,,,,,142,Ganga Basin,,-,-,-,-,-,-,-,-,-,-,-,-,-,-,-,-,-,-,-,-,-,-,-,-,-,-,-,-,-,-,-,-,-,-,-,-,-,-,-,-,-,-,-,-,-,-,-,-,-,-,-,-,-,-,-,-,-,-,-,-,-,-,-,-,-,-,-,-,-,-,-,-,-,-,-,-,-,-,-,-
-,,-,,,,,2019-04,,,,79.533883,,CPCB,106,,,,,,Ground Water At Santipuri Kichha- 2,-,28.97385,,,,UDHAM SINGH NAGAR,,Ramganga,,-,,,,230,,,,Uttarakhand,102,,-,,,,24,,,,,,,,,,,,,,,,,,,,,,,,,,,,,,,,580,,,,,,,,7.4,,,,,,,168,Ganga Basin,,-,-,-,-,-,-,-,-,-,-,-,-,-,-,-,-,-,-,-,-,-,-,-,-,-,-,-,-,-,-,-,-,-,-,-,-,-,-,-,-,-,-,-,-,-,-,-,-,-,-,-,-,-,-,-,-,-,-,-,-,-,-,-,-,-,-,-,-,-,-,-,-,-,-,-,-,-,-,-,-
-,,-,,,,,2019-04,,,,77.853992,,CPCB,50,,,,,,Ground Water At Selaqui Industrial Area- 1 Dehradun,-,30.368728,,,,Dehradun,,Yamuna Upper,,-,,,,115,,,,Uttarakhand,46,,-,,,,17,,,,,,,,,,,,,,,,,,,,,,,,,,,,,,,,,,,,,,,,7.4,,,,,,,122,Ganga Basin,,-,-,-,-,-,-,-,-,-,-,-,-,-,-,-,-,-,-,-,-,-,-,-,-,-,-,-,-,-,-,-,-,-,-,-,-,-,-,-,-,-,-,-,-,-,-,-,-,-,-,-,-,-,-,-,-,-,-,-,-,-,-,-,-,-,-,-,-,-,-,-,-,-,-,-,-,-,-,-,-
-,,-,,,,,2019-04,,,,77.868565,,CPCB,48,,,,,,Ground Water At Selaqui Industrial Area- 2 Dehradun,-,30.37317,,,,Dehradun,,Yamuna Upper,,-,,,,120,,,,Uttarakhand,44,,-,,,,22,,,,,,,,,,,,,,,,,,,,,,,,,,,,,,,,,,,,,,,,7.3,,,,,,,82,Ganga Basin,,-,-,-,-,-,-,-,-,-,-,-,-,-,-,-,-,-,-,-,-,-,-,-,-,-,-,-,-,-,-,-,-,-,-,-,-,-,-,-,-,-,-,-,-,-,-,-,-,-,-,-,-,-,-,-,-,-,-,-,-,-,-,-,-,-,-,-,-,-,-,-,-,-,-,-,-,-,-,-,-
-,,-,,,,,2019-04,,,,77.173425,,CPCB,62.9,,,,0.22,,Ground Water At Shimla D/S Of Msw Dumping Site,-,31.104606,,,,SHIMLA,,Yamuna Upper,,-,,,,299.5,110,,,Himachal Pradesh,9.2,72,-,4.2,,,49,,0.02,,,0.06,,,,,,,,,,1600,,,,,,0.31,,,,,,,,,,,545,0.07,,,,,,,8,,0.5,,,,,148,Ganga Basin,,-,-,-,-,-,-,-,-,-,-,-,-,-,-,-,-,-,-,-,-,-,-,-,-,-,-,-,-,-,-,-,-,-,-,-,-,-,-,-,-,-,-,-,-,-,-,-,-,-,-,-,-,-,-,-,-,-,-,-,-,-,-,-,-,-,-,-,-,-,-,-,-,-,-,-,-,-,-,-,-
-,,-,,,,,2019-04,,,,78.073389,,CPCB,74,,,,,,Ground Water At Sidcul Industrial Area- 1 Roshanabad Collectorate Haridwar,-,29.934503,,,,Haridwar,,Above Ramganga Confluence,,-,,,,288,,,,Uttarakhand,16,,-,,,,18,,,,,,,,,,,,,,,2,,,,,,,,,,,,,,,,,422,,,,,,,,7,,,,,,,120,Ganga Basin,,-,-,-,-,-,-,-,-,-,-,-,-,-,-,-,-,-,-,-,-,-,-,-,-,-,-,-,-,-,-,-,-,-,-,-,-,-,-,-,-,-,-,-,-,-,-,-,-,-,-,-,-,-,-,-,-,-,-,-,-,-,-,-,-,-,-,-,-,-,-,-,-,-,-,-,-,-,-,-,-
-,,-,,,,,2019-04,,,,78.073389,,CPCB,190,,,,,,Ground Water At Sidcul Industrial Area- 2 Saleempur Chowkroorkeeharidwar,-,29.934503,,,,Haridwar,,Above Ramganga Confluence,,-,,,,648,,,,Uttarakhand,26,,-,,,,35,,,,,,,,,,,,,,,2,,,,,,,,,,,,,,,,,970,,,,,,,,7.4,,,,,,,275,Ganga Basin,,-,-,-,-,-,-,-,-,-,-,-,-,-,-,-,-,-,-,-,-,-,-,-,-,-,-,-,-,-,-,-,-,-,-,-,-,-,-,-,-,-,-,-,-,-,-,-,-,-,-,-,-,-,-,-,-,-,-,-,-,-,-,-,-,-,-,-,-,-,-,-,-,-,-,-,-,-,-,-,-
-,,-,,,,,2019-04,,,,79.7,,CPCB,134,,,,,,Ground Water At Sitar Ganj Industrial Area- 1,-,28.93,,,,UDHAM SINGH NAGAR,,Ramganga,,-,,,,329,,,,Uttarakhand,112,,-,,,,24,,,,,,,,,,,,,,,,,,,,,,,,,,,,,,,,390,,,,,,,,7.5,,,,,,,246,Ganga Basin,,-,-,-,-,-,-,-,-,-,-,-,-,-,-,-,-,-,-,-,-,-,-,-,-,-,-,-,-,-,-,-,-,-,-,-,-,-,-,-,-,-,-,-,-,-,-,-,-,-,-,-,-,-,-,-,-,-,-,-,-,-,-,-,-,-,-,-,-,-,-,-,-,-,-,-,-,-,-,-,-
-,,-,,,,,2019-04,,,,79.701556,,CPCB,158,,,,,,Ground Water At Sitar Ganj Industrial Area- 2,-,28.928978,,,,UDHAM SINGH NAGAR,,Ramganga,,-,,,,309,,,,Uttarakhand,90,,-,,,,28,,,,,,,,,,,,,,,,,,,,,,,,,,,,,,,,520,,,,,,,,7.1,,,,,,,324,Ganga Basin,,-,-,-,-,-,-,-,-,-,-,-,-,-,-,-,-,-,-,-,-,-,-,-,-,-,-,-,-,-,-,-,-,-,-,-,-,-,-,-,-,-,-,-,-,-,-,-,-,-,-,-,-,-,-,-,-,-,-,-,-,-,-,-,-,-,-,-,-,-,-,-,-,-,-,-,-,-,-,-,-
-,,-,,,,,2019-04,,,,77.096698,,CPCB,,,,,0.07,,Ground Water At Solan-D/S Of Msw Dumping Site Salogra,-,30.90541,,,,SOLAN,,Yamuna Upper,,-,,,,242,14,,,Himachal Pradesh,-,,-,2,,,55,,0.02,,,0.06,,,,,,0.58,,,,26,,,,,,0.2,,,,,,,,,,,459,,,,,,,,7,,0.25,,,,,254,Ganga Basin,,-,-,-,-,-,-,-,-,-,-,-,-,-,-,-,-,-,-,-,-,-,-,-,-,-,-,-,-,-,-,-,-,-,-,-,-,-,-,-,-,-,-,-,-,-,-,-,-,-,-,-,-,-,-,-,-,-,-,-,-,-,-,-,-,-,-,-,-,-,-,-,-,-,-,-,-,-,-,-,-
-,,-,,,,,2019-04,,,,85.159936,,CPCB,17.6,,,,,,Ground Water From Tap Water Coming From Over Head Tank Pmch Campus Patna,-,25.620924,,,,PATNA,,Gandak and others,,-,,,,152,2,,,Bihar,26.2,,-,,,,14,,,,,,,,,,,0.34,,,,2,,,,,,0.7,,,,,,,,,,,517,,,,,,,,7.1,,,,,,,246,Ganga Basin,,-,-,-,-,-,-,-,-,-,-,-,-,-,-,-,-,-,-,-,-,-,-,-,-,-,-,-,-,-,-,-,-,-,-,-,-,-,-,-,-,-,-,-,-,-,-,-,-,-,-,-,-,-,-,-,-,-,-,-,-,-,-,-,-,-,-,-,-,-,-,-,-,-,-,-,-,-,-,-,-
-,,-,,,,,2019-04,,,,86.365208,,CPCB,72,,,,,,Ground Water Point At Purulia Rk Mission,-,23.332078,,,,PURULIYA,,Damodar,,-,,,,980,2,,,West Bengal,43.2,7,-,,,,215.3,,,,,,,,,,,0.95,,,,2,,,,,,0.24,,,,,,,,,,,1984,,,,,,,,7.8,,,,,,,220,Ganga Basin,,-,-,-,-,-,-,-,-,-,-,-,-,-,-,-,-,-,-,-,-,-,-,-,-,-,-,-,-,-,-,-,-,-,-,-,-,-,-,-,-,-,-,-,-,-,-,-,-,-,-,-,-,-,-,-,-,-,-,-,-,-,-,-,-,-,-,-,-,-,-,-,-,-,-,-,-,-,-,-,-
-,,-,,,,,2019-04,,,,87.846803,,CPCB,57.6,,,,,,Ground Water Point Inside Burdwan University,-,23.257281,,,,PURBA BARDHAMAN,,Bhagirathi and others (Ganga Lower),,-,,,,342,2,,,West Bengal,34.6,,-,,,,84.2,,,,,,,,,,,,,,,4,,,,,,0.29,,,,,,,,,,,610,,,,,,,,8.4,,,,,,,230,Ganga Basin,,-,-,-,-,-,-,-,-,-,-,-,-,-,-,-,-,-,-,-,-,-,-,-,-,-,-,-,-,-,-,-,-,-,-,-,-,-,-,-,-,-,-,-,-,-,-,-,-,-,-,-,-,-,-,-,-,-,-,-,-,-,-,-,-,-,-,-,-,-,-,-,-,-,-,-,-,-,-,-,-
-,,-,,,,,2019-04,,,,87.856658,,CPCB,86.4,,,,,,Ground Water Point Near Burdwan Station,-,23.250767,,,,PURBA BARDHAMAN,,Bhagirathi and others (Ganga Lower),,-,,,,664,,,,West Bengal,51.8,,-,,,,212.1,,,,,,,,,,,,,,,,,,,,,0.26,,,,,,,,,,,972,,,,,,,,8.1,,,,,,,330,Ganga Basin,,-,-,-,-,-,-,-,-,-,-,-,-,-,-,-,-,-,-,-,-,-,-,-,-,-,-,-,-,-,-,-,-,-,-,-,-,-,-,-,-,-,-,-,-,-,-,-,-,-,-,-,-,-,-,-,-,-,-,-,-,-,-,-,-,-,-,-,-,-,-,-,-,-,-,-,-,-,-,-,-
-,,-,,,,,2019-04,,,,83.707206,,CPCB,180,,,,,,Ground Water Quality Station Captanganj U.P,-,26.928581,,,,KUSHINAGAR,,Ghaghara,,-,,,,456,2,,,Uttar Pradesh,140,26,-,18,,,38,,,,,,,,,,,,,,,2,,,,,,,,,,,,,,,,,680,,,,,,,,5.6,,0.68,,,,,,Ganga Basin,,-,-,-,-,-,-,-,-,-,-,-,-,-,-,-,-,-,-,-,-,-,-,-,-,-,-,-,-,-,-,-,-,-,-,-,-,-,-,-,-,-,-,-,-,-,-,-,-,-,-,-,-,-,-,-,-,-,-,-,-,-,-,-,-,-,-,-,-,-,-,-,-,-,-,-,-,-,-,-,-
-,,-,,,,,2019-04,,,,83.552618,,CPCB,222,,,,,,Ground Water Quality Station Sardarnagar U.P,-,26.686837,,,,GORAKHPUR,,Ghaghara,,-,,,,376,,,,Uttar Pradesh,142,28,-,30,,,54,,,,,,,,,,,,,,,,,,,,,,,,,,,,,,,,680,,,,,,,,5.6,,0.46,,,,,,Ganga Basin,,-,-,-,-,-,-,-,-,-,-,-,-,-,-,-,-,-,-,-,-,-,-,-,-,-,-,-,-,-,-,-,-,-,-,-,-,-,-,-,-,-,-,-,-,-,-,-,-,-,-,-,-,-,-,-,-,-,-,-,-,-,-,-,-,-,-,-,-,-,-,-,-,-,-,-,-,-,-,-,-
-,,-,,,,,2019-04,,,,77.173425,,CPCB,53.3,,,,0.22,,Hand Pump At Shimla,-,31.104606,,,,SHIMLA,,Yamuna Upper,,-,,,,188.2,2,,,Himachal Pradesh,4.9,,-,1.5,,,25.5,,0.02,,,0.06,,,,,,,,,,2,,,,,,0.2,,,,,,,,,,,342,0.04,,,,,,,8.4,,0.28,,,,,81,Ganga Basin,,-,-,-,-,-,-,-,-,-,-,-,-,-,-,-,-,-,-,-,-,-,-,-,-,-,-,-,-,-,-,-,-,-,-,-,-,-,-,-,-,-,-,-,-,-,-,-,-,-,-,-,-,-,-,-,-,-,-,-,-,-,-,-,-,-,-,-,-,-,-,-,-,-,-,-,-,-,-,-,-
-,,-,,,,,2019-04,,,,74.601849,,CPCB,54.4,,,,,,Hand Pump At Village Atoon Bhilwara,-,25.285209,,,,BHILWARA,,Banas,,-,,,,1238,4,,,Rajasthan,14.6,19.2,-,,,,280,,,,,,,,,,,3.64,,,,7,,,,,,0.98,,,,,,,,,,,1550,,,,,,,,7.5,,,,,,,224,Ganga Basin,,-,-,-,-,-,-,-,-,-,-,-,-,-,-,-,-,-,-,-,-,-,-,-,-,-,-,-,-,-,-,-,-,-,-,-,-,-,-,-,-,-,-,-,-,-,-,-,-,-,-,-,-,-,-,-,-,-,-,-,-,-,-,-,-,-,-,-,-,-,-,-,-,-,-,-,-,-,-,-,-
-,,-,,,,,2019-04,,,,74.675428,,CPCB,67.2,,,,,,Hand Pump At Village Mangrop Bhilwara,-,25.221168,,,,BHILWARA,,Banas,,-,,,,846,4,,,Rajasthan,14.6,23.4,-,,,,172,,,,,,,,,,,2.74,,,,7,,,,,,0.86,,,,,,,,,,,1060,,,,,,,,7.6,,,,,,,284,Ganga Basin,,-,-,-,-,-,-,-,-,-,-,-,-,-,-,-,-,-,-,-,-,-,-,-,-,-,-,-,-,-,-,-,-,-,-,-,-,-,-,-,-,-,-,-,-,-,-,-,-,-,-,-,-,-,-,-,-,-,-,-,-,-,-,-,-,-,-,-,-,-,-,-,-,-,-,-,-,-,-,-,-
-,,-,,,,,2019-04,,,,79.007534,,CPCB,108,,,,,,Handpump In Village Damauda At Kashipur Near M/S India Glycoles Ltd.,-,29.17602,,,,UDHAM SINGH NAGAR,,Ramganga,,-,,,,182,,,,Uttarakhand,84,,-,,,,34,,,,,,,,,,,,,,,,,,,,,,,,,,,,,,,,360,,,,,,,,7.5,,,,,,,162,Ganga Basin,,-,-,-,-,-,-,-,-,-,-,-,-,-,-,-,-,-,-,-,-,-,-,-,-,-,-,-,-,-,-,-,-,-,-,-,-,-,-,-,-,-,-,-,-,-,-,-,-,-,-,-,-,-,-,-,-,-,-,-,-,-,-,-,-,-,-,-,-,-,-,-,-,-,-,-,-,-,-,-,-
-,,-,,,,,2019-04,,,,76.17413,,CPCB,44.8,,,,0.01,,Handpump Near M/S Chamble Fertilizer & Chemicals Gadepan,-,25.159722,,,,KOTA,,Kali Sindh and others up to Confluence with Parbati,,-,,,,402,4,,,Rajasthan,17.6,24.2,-,,,,44,,0.02,,,0.06,,,,,,2.62,,,,7,,,,,,0.92,,,,,,,,,,,520,,,,,,,,7.9,,,,,,,172,Ganga Basin,,-,-,-,-,-,-,-,-,-,-,-,-,-,-,-,-,-,-,-,-,-,-,-,-,-,-,-,-,-,-,-,-,-,-,-,-,-,-,-,-,-,-,-,-,-,-,-,-,-,-,-,-,-,-,-,-,-,-,-,-,-,-,-,-,-,-,-,-,-,-,-,-,-,-,-,-,-,-,-,-
-,,-,,,,,2019-04,,,,75.820268,,CPCB,115.2,,,,0.01,,Handpump Near M/S Rajasthan Textile Mills Bhawani Mandi,-,24.404242,,,,JHALAWAR,,Kali Sindh and others up to Confluence with Parbati,,-,,,,3294,3,,,Rajasthan,41,60.7,-,,,,1072,,0.02,,,0.02,,,,,,1.24,,,,7,,,,,,1.1,,,,,,,,,,,4600,,,,,,,,7.8,,,,,,,308,Ganga Basin,,-,-,-,-,-,-,-,-,-,-,-,-,-,-,-,-,-,-,-,-,-,-,-,-,-,-,-,-,-,-,-,-,-,-,-,-,-,-,-,-,-,-,-,-,-,-,-,-,-,-,-,-,-,-,-,-,-,-,-,-,-,-,-,-,-,-,-,-,-,-,-,-,-,-,-,-,-,-,-,-
-,,-,,,,,2019-04,,,,75.856456,,CPCB,65.6,,,,,,Hand Pump Near Nevta Tiraha Nevta Dam Sanganer Jaipur Rajasthan,-,26.887742,,,,JAIPUR,,Banas,,-,,,,1706,3,,,Rajasthan,20.5,34.8,-,,,,324,,,,,,,,,,,1.54,,,,3,,,,,,1,,,,,,,,,,,2300,,,,,,,,7.8,,,,,,,336,Ganga Basin,,-,-,-,-,-,-,-,-,-,-,-,-,-,-,-,-,-,-,-,-,-,-,-,-,-,-,-,-,-,-,-,-,-,-,-,-,-,-,-,-,-,-,-,-,-,-,-,-,-,-,-,-,-,-,-,-,-,-,-,-,-,-,-,-,-,-,-,-,-,-,-,-,-,-,-,-,-,-,-,-
-,,-,,,,,2019-04,,,,74.657425,,CPCB,313.6,,,,,,Hand Pump Near Riico Inustrial Area Aajoliyon Ka Khera Gangrar Chittorgarh,-,24.980718,,,,CHITTORGARH,,Banas,,-,,,,1824,4,,,Rajasthan,50.8,22.4,-,,,,236,,,,,,,,,,,2.1,,,,7,,,,,,0.98,,,,,,,,,,,2400,,,,,,,,7.3,,,,,,,192,Ganga Basin,,-,-,-,-,-,-,-,-,-,-,-,-,-,-,-,-,-,-,-,-,-,-,-,-,-,-,-,-,-,-,-,-,-,-,-,-,-,-,-,-,-,-,-,-,-,-,-,-,-,-,-,-,-,-,-,-,-,-,-,-,-,-,-,-,-,-,-,-,-,-,-,-,-,-,-,-,-,-,-,-
-,,-,,,,,2019-04,,,,75.879251,,CPCB,33.6,,,,0.01,,Hand Pump Near Secondary School About 300mt. From Kansua Nallah Kota Rajasthan,-,25.144078,,,,KOTA,,Kali Sindh and others up to Confluence with Parbati,,-,,,,936,3,,,Rajasthan,13.7,13.3,-,,,,148,,0.02,,,0.01,,,,,,1.84,,,,7,,,,,,0.98,,,,,,,,,,,1230,,,,,,,,7.4,,,,,,,164,Ganga Basin,,-,-,-,-,-,-,-,-,-,-,-,-,-,-,-,-,-,-,-,-,-,-,-,-,-,-,-,-,-,-,-,-,-,-,-,-,-,-,-,-,-,-,-,-,-,-,-,-,-,-,-,-,-,-,-,-,-,-,-,-,-,-,-,-,-,-,-,-,-,-,-,-,-,-,-,-,-,-,-,-
-,,-,,,,,2019-04,,,,75.876981,,CPCB,56,,,,,,Hand Pump Of Vidhani Village Goner Road Jaipur Rajasthan,-,26.777364,,,,JAIPUR,,Banas,,-,,,,2606,3,,,Rajasthan,22.4,40.7,-,,,,688,,,,,,,,,,,1.4,,,,3,,,,,,1.02,,,,,,,,,,,3500,,,,,,,,7.5,,,,,,,328,Ganga Basin,,-,-,-,-,-,-,-,-,-,-,-,-,-,-,-,-,-,-,-,-,-,-,-,-,-,-,-,-,-,-,-,-,-,-,-,-,-,-,-,-,-,-,-,-,-,-,-,-,-,-,-,-,-,-,-,-,-,-,-,-,-,-,-,-,-,-,-,-,-,-,-,-,-,-,-,-,-,-,-,-
-,,-,,,,,2019-04,,,,77.57514,,CPCB,58,,,,,,Hand Pump Water At Banskhedi Bhopal,-,23.233545,,,,BHOPAL,,Yamuna Lower,,-,,,,146,2,,,Madhya Pradesh,36,9.6,-,,,,45.3,,,,,,,,,,,1.5,,,,33,,,,,,,,,,,,,,,,,2148,,,,,,,,8.1,,,,,,,152,Ganga Basin,,-,-,-,-,-,-,-,-,-,-,-,-,-,-,-,-,-,-,-,-,-,-,-,-,-,-,-,-,-,-,-,-,-,-,-,-,-,-,-,-,-,-,-,-,-,-,-,-,-,-,-,-,-,-,-,-,-,-,-,-,-,-,-,-,-,-,-,-,-,-,-,-,-,-,-,-,-,-,-,-
-,,-,,,,,2019-04,,,,74.87557,,CPCB,52.8,,,,,,Handpump Within Premises Of Nagar Parishad Office Old City Road Deshwali Mohalla Krishangarh,-,26.567976,,,,AJMER,,Banas,,-,,,,1426,3,,,Rajasthan,23.4,13.9,-,,,,280,,,,,,,,,,,2.8,,,,7,,,,,,0.8,,,,,,,,,,,1900,,,,,,,,7.4,,,,,,,,Ganga Basin,,-,-,-,-,-,-,-,-,-,-,-,-,-,-,-,-,-,-,-,-,-,-,-,-,-,-,-,-,-,-,-,-,-,-,-,-,-,-,-,-,-,-,-,-,-,-,-,-,-,-,-,-,-,-,-,-,-,-,-,-,-,-,-,-,-,-,-,-,-,-,-,-,-,-,-,-,-,-,-,-
-,,-,,,,,2019-04,,,,77.423614,,CPCB,270,,,,0.44,,Hapur Road Industrial Area Ghaziabad U.P,-,28.640478,,,,GHAZIABAD,,Yamuna Upper,,-,,,,488,2,,,Uttar Pradesh,110,,-,,,,43,,0.012,,,,,,,,,0.4,,,,2,,,,,,0.2,,,,,,,,,,,960,0.11,,,,,,,6.9,0.004,0.27,,,,,240,Ganga Basin,,-,-,-,-,-,-,-,-,-,-,-,-,-,-,-,-,-,-,-,-,-,-,-,-,-,-,-,-,-,-,-,-,-,-,-,-,-,-,-,-,-,-,-,-,-,-,-,-,-,-,-,-,-,-,-,-,-,-,-,-,-,-,-,-,-,-,-,-,-,-,-,-,-,-,-,-,-,-,-,-
-,,-,,,,,2019-04,,,,88.472933,,CPCB,33.9,,,,0.01,,Hidco Office Rajarhat,-,22.580058,,,,NORTH 24 PARGANAS,,Bhagirathi and others (Ganga Lower),,-,,,,260,2,,,West Bengal,11.7,10.5,-,,,,21,,0.02,,,0.06,,,,,,,,,,8,,,,,,0.31,,,,,,,,,,,388,0.1,,,,,,,7.9,0.01,0.06,,,,,160,Ganga Basin,,-,-,-,-,-,-,-,-,-,-,-,-,-,-,-,-,-,-,-,-,-,-,-,-,-,-,-,-,-,-,-,-,-,-,-,-,-,-,-,-,-,-,-,-,-,-,-,-,-,-,-,-,-,-,-,-,-,-,-,-,-,-,-,-,-,-,-,-,-,-,-,-,-,-,-,-,-,-,-,-
-,,-,,,,,2019-04,,,,73.7191,,CPCB,40,,,,,,Hotel Orient Place Subhas Nagar Udaipur,-,24.582572,,,,UDAIPUR,,Banas,,-,,,,1008,3,,,Rajasthan,16.6,19.2,-,,,,204,,,,,,,,,,,1.7,,,,7,,,,,,0.76,,,,,,,,,,,1340,,,,,,,,7.1,,,,,,,172,Ganga Basin,,-,-,-,-,-,-,-,-,-,-,-,-,-,-,-,-,-,-,-,-,-,-,-,-,-,-,-,-,-,-,-,-,-,-,-,-,-,-,-,-,-,-,-,-,-,-,-,-,-,-,-,-,-,-,-,-,-,-,-,-,-,-,-,-,-,-,-,-,-,-,-,-,-,-,-,-,-,-,-,-
-,,-,,,,,2019-04,,,,87.37,,CPCB,19.2,,,,,,Hot Spring At Bakreshwar,-,23.88,,,,BIRBHUM,,Bhagirathi and others (Ganga Lower),,-,,,,378,,,,West Bengal,11.5,6.8,-,1.7,,,152.9,,,,,,,,,,,,,,,,,,,,,7.86,,,,,,,,,,,636,,,,,,,,9.1,,,,,,,170,Ganga Basin,,-,-,-,-,-,-,-,-,-,-,-,-,-,-,-,-,-,-,-,-,-,-,-,-,-,-,-,-,-,-,-,-,-,-,-,-,-,-,-,-,-,-,-,-,-,-,-,-,-,-,-,-,-,-,-,-,-,-,-,-,-,-,-,-,-,-,-,-,-,-,-,-,-,-,-,-,-,-,-,-
-,,-,,,,,2019-04,,,,80.935244,,CPCB,240,,,,,,India Marka Hand Pump In Sarowni Block At Raibareilly U.P,-,26.771022,,,,LUCKNOW,,Gomti,,-,,,,830,,,,Uttar Pradesh,132,,-,,,,90.9,,,,,,,,,,,,,,,,,,,,,1.9,,,,,,,,,,,1189,,,,,,,,8,,,,,,,550,Ganga Basin,,-,-,-,-,-,-,-,-,-,-,-,-,-,-,-,-,-,-,-,-,-,-,-,-,-,-,-,-,-,-,-,-,-,-,-,-,-,-,-,-,-,-,-,-,-,-,-,-,-,-,-,-,-,-,-,-,-,-,-,-,-,-,-,-,-,-,-,-,-,-,-,-,-,-,-,-,-,-,-,-
-,,-,,,,,2019-04,,,,81.1611,,CPCB,232,,,,,,Industrial Area Sultanpur Road,-,26.1338,,,,Raibareli,,Gomti,,-,,,,688,,,,Uttar Pradesh,136,,-,,,,71,,,,,,,,,,,,,,,,,,,,,0.78,,,,,,,,,,,1118,,,,,,,,8.1,,,,,,,500,Ganga Basin,,-,-,-,-,-,-,-,-,-,-,-,-,-,-,-,-,-,-,-,-,-,-,-,-,-,-,-,-,-,-,-,-,-,-,-,-,-,-,-,-,-,-,-,-,-,-,-,-,-,-,-,-,-,-,-,-,-,-,-,-,-,-,-,-,-,-,-,-,-,-,-,-,-,-,-,-,-,-,-,-
-,,-,,,,,2019-04,,,,88.069831,,CPCB,48.5,,,,0.01,,Inside Hindustan Liver Factory Haldia West Bengal,-,22.066658,,,,MEDINIPUR,,Damodar,,-,,,,736,,,,West Bengal,19.6,8.1,-,,,,274,,0.02,,,0.06,,,,,,0.75,,,,,,,,,,0.22,,,,,,,,,,,1265,0.1,,,,,,,7.9,0.01,0.4,,,,,311.2,Ganga Basin,,-,-,-,-,-,-,-,-,-,-,-,-,-,-,-,-,-,-,-,-,-,-,-,-,-,-,-,-,-,-,-,-,-,-,-,-,-,-,-,-,-,-,-,-,-,-,-,-,-,-,-,-,-,-,-,-,-,-,-,-,-,-,-,-,-,-,-,-,-,-,-,-,-,-,-,-,-,-,-,-
-,,-,,,,,2019-04,,,,88.51525,,CPCB,153.9,,,,0.01,,Inside Kolkata Leather Complex,-,22.507544,,,,SOUTH 24 PARGANAS,,Bhagirathi and others (Ganga Lower),,-,,,,1032,9,,,West Bengal,42.1,,-,,,,774.8,,0.02,,,0.06,,,,,,,,,,14,,,,,,0.38,,,,,,,,,,,1648,0.1,,,,,,,7.1,0.01,0.27,,,,,360,Ganga Basin,,-,-,-,-,-,-,-,-,-,-,-,-,-,-,-,-,-,-,-,-,-,-,-,-,-,-,-,-,-,-,-,-,-,-,-,-,-,-,-,-,-,-,-,-,-,-,-,-,-,-,-,-,-,-,-,-,-,-,-,-,-,-,-,-,-,-,-,-,-,-,-,-,-,-,-,-,-,-,-,-
-,,-,,,,,2019-04,,,,75.848906,,CPCB,153.6,,,,,,In Side Shiv Temple Near Air Force Station Amer Road Jaipur,-,26.968372,,,,JAIPUR,,Banas,,-,,,,2146,3,,,Rajasthan,39,15,-,,,,224,,,,,,,,,,,2.8,,,,3,,,,,,1.14,,,,,,,,,,,2900,,,,,,,,7.4,,,,,,,300,Ganga Basin,,-,-,-,-,-,-,-,-,-,-,-,-,-,-,-,-,-,-,-,-,-,-,-,-,-,-,-,-,-,-,-,-,-,-,-,-,-,-,-,-,-,-,-,-,-,-,-,-,-,-,-,-,-,-,-,-,-,-,-,-,-,-,-,-,-,-,-,-,-,-,-,-,-,-,-,-,-,-,-,-
-,,-,,,,,2019-04,,,,87.325108,,CPCB,13.7,,,,0.01,,Inside Tata Metaliks Kharagpur,-,22.331167,,,,MEDINIPUR,,Damodar,,-,,,,276,,,,West Bengal,16.2,,-,4.3,,,14.7,,0.02,,,0.06,,,,,,,,,,,,,,,,0.23,,,,,,,,,,,501,0.1,,,,,,,7.5,0.01,0.65,,,,,152.4,Ganga Basin,,-,-,-,-,-,-,-,-,-,-,-,-,-,-,-,-,-,-,-,-,-,-,-,-,-,-,-,-,-,-,-,-,-,-,-,-,-,-,-,-,-,-,-,-,-,-,-,-,-,-,-,-,-,-,-,-,-,-,-,-,-,-,-,-,-,-,-,-,-,-,-,-,-,-,-,-,-,-,-,-
-,,-,,,,,2019-04,,,,88.450222,,CPCB,94,,,,33,,Kalyani Industrial Area Nadia West Bengal,-,22.988655,,,,NADIA,,Bhagirathi and others (Ganga Lower),,-,,,,568,,,,West Bengal,48,,-,12.3,,,225.5,,0.02,,,0.06,,,,,,0.6,,,,,,,,,,0.2,,,,,,,,,,,1245,0.1,,,,,,,7.6,26.1,1.16,,,,,340,Ganga Basin,,-,-,-,-,-,-,-,-,-,-,-,-,-,-,-,-,-,-,-,-,-,-,-,-,-,-,-,-,-,-,-,-,-,-,-,-,-,-,-,-,-,-,-,-,-,-,-,-,-,-,-,-,-,-,-,-,-,-,-,-,-,-,-,-,-,-,-,-,-,-,-,-,-,-,-,-,-,-,-,-
-,,-,,,,,2019-04,,,,87.330928,,CPCB,7.3,,,,0.01,,Kharagpur Industrial Area,-,22.328097,,,,MEDINIPUR,,Damodar,,-,,,,80,,,,West Bengal,6.4,7.3,-,1.1,,,,,0.02,,,0.06,,,,,,,,,,,,,,,,0.2,,,,,,,,,,,150,0.1,,,,,,,7.6,0.01,0.39,,,,,53.7,Ganga Basin,,-,-,-,-,-,-,-,-,-,-,-,-,-,-,-,-,-,-,-,-,-,-,-,-,-,-,-,-,-,-,-,-,-,-,-,-,-,-,-,-,-,-,-,-,-,-,-,-,-,-,-,-,-,-,-,-,-,-,-,-,-,-,-,-,-,-,-,-,-,-,-,-,-,-,-,-,-,-,-,-
-,,-,,,,,2019-04,,,,77.437194,,CPCB,248.4,,,,0.75,,Meerut Road Industrial Area Ghaziabad U.P,-,28.688578,,,,GHAZIABAD,,Yamuna Upper,,-,,,,354,2,,,Uttar Pradesh,67.4,,-,,,,62,,0.206,,,,,,,,,0.39,,,,2,,,,,,0.5,,,,,,,,,,,501,0.29,,,,,,,6.9,0.015,0.22,,,,,180,Ganga Basin,,-,-,-,-,-,-,-,-,-,-,-,-,-,-,-,-,-,-,-,-,-,-,-,-,-,-,-,-,-,-,-,-,-,-,-,-,-,-,-,-,-,-,-,-,-,-,-,-,-,-,-,-,-,-,-,-,-,-,-,-,-,-,-,-,-,-,-,-,-,-,-,-,-,-,-,-,-,-,-,-
-,,-,,,,,2019-04,,,,86.965172,,CPCB,60.8,,,,,,Mine Pit Water Assansol West Bengal,-,23.688196,,,,BARDDHAMAN,,Damodar,,-,,,,334,,,,West Bengal,36.5,6.9,-,1.2,,,62.4,,,,,,,,,,,,,,,2,,,,,,0.28,,,,,,,,,,,752,,,,,,,,8.4,,,,,,,260,Ganga Basin,,-,-,-,-,-,-,-,-,-,-,-,-,-,-,-,-,-,-,-,-,-,-,-,-,-,-,-,-,-,-,-,-,-,-,-,-,-,-,-,-,-,-,-,-,-,-,-,-,-,-,-,-,-,-,-,-,-,-,-,-,-,-,-,-,-,-,-,-,-,-,-,-,-,-,-,-,-,-,-,-
-,,-,,,,,2019-04,,,,88.016364,,CPCB,30.4,,,,,,Moregram Crossing,-,24.302586,,,,MURSHIDABAD,,Bhagirathi and others (Ganga Lower),,-,,,,204,,,,West Bengal,18.2,,-,15.1,,,21.8,,,,,,,,,,,0.84,,,,,,,,,,0.21,,,,,,,,,,,317,,,,,,,,8.1,,,,,,,180,Ganga Basin,,-,-,-,-,-,-,-,-,-,-,-,-,-,-,-,-,-,-,-,-,-,-,-,-,-,-,-,-,-,-,-,-,-,-,-,-,-,-,-,-,-,-,-,-,-,-,-,-,-,-,-,-,-,-,-,-,-,-,-,-,-,-,-,-,-,-,-,-,-,-,-,-,-,-,-,-,-,-,-,-
-,,-,,,,,2019-04,,,,82.993158,,CPCB,372,,,,0.56,,M/S Kanoria Chemical Sonbhadra U.P,-,24.457019,,,,SONBHADRA,,Sone,,-,,,,305,,,,Uttar Pradesh,140,7.2,-,14,,,50,,,,,,,,,,,1.4,,,,,,,,,,,,,,,,,,,,,485,,,,,,,,8.2,,1.76,,,,,,Ganga Basin,,-,-,-,-,-,-,-,-,-,-,-,-,-,-,-,-,-,-,-,-,-,-,-,-,-,-,-,-,-,-,-,-,-,-,-,-,-,-,-,-,-,-,-,-,-,-,-,-,-,-,-,-,-,-,-,-,-,-,-,-,-,-,-,-,-,-,-,-,-,-,-,-,-,-,-,-,-,-,-,-
-,,-,,,,,2019-04,,,,76.525928,,CPCB,41.6,,,,,,M/S Specialty Silica Ltd. Mia Alwar Agro Food Park Alwar Rajasthan,-,27.537483,,,,ALWAR,,Yamuna Middle,,-,,,,786,3,,,Rajasthan,14.6,40.5,-,,,,116,,,,,,,,,,,1.76,,,,7,,,,,,1.02,,,,,,,,,,,1070,,,,,,,,7.2,,,,,,,180,Ganga Basin,,-,-,-,-,-,-,-,-,-,-,-,-,-,-,-,-,-,-,-,-,-,-,-,-,-,-,-,-,-,-,-,-,-,-,-,-,-,-,-,-,-,-,-,-,-,-,-,-,-,-,-,-,-,-,-,-,-,-,-,-,-,-,-,-,-,-,-,-,-,-,-,-,-,-,-,-,-,-,-,-
-,,-,,,,,2019-04,,,,82.072736,,CPCB,256,,,,,,Nagar Palika Tube Well Sultanpur U.P,-,26.264778,,,,SULTANPUR,,Gomti,,-,,,,820,,,,Uttar Pradesh,130,,-,,,,59.6,,,,,,,,,,,,,,,,,,,,,0.66,,,,,,,,,,,1161,,,,,,,,7.8,,,,,,,400,Ganga Basin,,-,-,-,-,-,-,-,-,-,-,-,-,-,-,-,-,-,-,-,-,-,-,-,-,-,-,-,-,-,-,-,-,-,-,-,-,-,-,-,-,-,-,-,-,-,-,-,-,-,-,-,-,-,-,-,-,-,-,-,-,-,-,-,-,-,-,-,-,-,-,-,-,-,-,-,-,-,-,-,-
-,,-,,,,,2019-04,,,,87.838553,,CPCB,40,,,,,,Nalhati Railway Station Of Birbhum,-,24.295633,,,,BIRBHUM,,Bhagirathi and others (Ganga Lower),,-,,,,1088,,,,West Bengal,29.8,,-,,,,246.4,,,,,,,,,,,0.91,,,,2,,,,,,0.22,,,,,,,,,,,1233,,,,,,,,8.1,,,,,,,320,Ganga Basin,,-,-,-,-,-,-,-,-,-,-,-,-,-,-,-,-,-,-,-,-,-,-,-,-,-,-,-,-,-,-,-,-,-,-,-,-,-,-,-,-,-,-,-,-,-,-,-,-,-,-,-,-,-,-,-,-,-,-,-,-,-,-,-,-,-,-,-,-,-,-,-,-,-,-,-,-,-,-,-,-
-,,-,,,,,2019-04,,,,75.7728,,CPCB,92.8,,,,,,Near Abn Central Academy Susilpura Sodala Jaipur.,-,26.906475,,,,JAIPUR,,Banas,,-,,,,1708,3,,,Rajasthan,43.9,16.7,-,,,,128,,,,,,,,,,,2.06,,,,3,,,,,,0.98,,,,,,,,,,,2300,,,,,,,,7.2,,,,,,,332,Ganga Basin,,-,-,-,-,-,-,-,-,-,-,-,-,-,-,-,-,-,-,-,-,-,-,-,-,-,-,-,-,-,-,-,-,-,-,-,-,-,-,-,-,-,-,-,-,-,-,-,-,-,-,-,-,-,-,-,-,-,-,-,-,-,-,-,-,-,-,-,-,-,-,-,-,-,-,-,-,-,-,-,-
-,,-,,,,,2019-04,,,,73.696111,,CPCB,43.2,,,,,,Near Arvind General Store Aloo Factory Kacchi Basti Sardarpura Udaipur,-,24.597875,,,,UDAIPUR,,Banas,,-,,,,1326,3,,,Rajasthan,28.3,23.2,-,,,,288,,,,,,,,,,,1.84,,,,7,,,,,,0.96,,,,,,,,,,,1800,,,,,,,,5.2,,,,,,,252,Ganga Basin,,-,-,-,-,-,-,-,-,-,-,-,-,-,-,-,-,-,-,-,-,-,-,-,-,-,-,-,-,-,-,-,-,-,-,-,-,-,-,-,-,-,-,-,-,-,-,-,-,-,-,-,-,-,-,-,-,-,-,-,-,-,-,-,-,-,-,-,-,-,-,-,-,-,-,-,-,-,-,-,-
-,,-,,,,,2019-04,,,,88.069822,,CPCB,64.7,,,,0.01,,Near Exide Industries-Haldia,-,22.066686,,,,MEDINIPUR,,Damodar,,-,,,,740,,,,West Bengal,31.9,,-,,,,225,,0.02,,,0.06,,,,,,,,,,,,,,,,0.21,,,,,,,,,,,1319,0.1,,,,,,,7.6,0.01,0.68,,,,,354.1,Ganga Basin,,-,-,-,-,-,-,-,-,-,-,-,-,-,-,-,-,-,-,-,-,-,-,-,-,-,-,-,-,-,-,-,-,-,-,-,-,-,-,-,-,-,-,-,-,-,-,-,-,-,-,-,-,-,-,-,-,-,-,-,-,-,-,-,-,-,-,-,-,-,-,-,-,-,-,-,-,-,-,-,-
-,,-,,,,,2019-04,,,,88.379542,,CPCB,36,,,,0.01,,Near Fly Ash Dumping Site-Kuntighat Bandel,-,22.922742,,,,HUGLI,,Bhagirathi and others (Ganga Lower),,-,,,,238,,,,West Bengal,12,,-,6.3,,,23.5,,0.02,,,0.06,,,,,,0.73,,,,,,,,,,0.32,,,,,,,,,,,405,0.1,,,,,,,7.6,0.01,0.06,,,,,166,Ganga Basin,,-,-,-,-,-,-,-,-,-,-,-,-,-,-,-,-,-,-,-,-,-,-,-,-,-,-,-,-,-,-,-,-,-,-,-,-,-,-,-,-,-,-,-,-,-,-,-,-,-,-,-,-,-,-,-,-,-,-,-,-,-,-,-,-,-,-,-,-,-,-,-,-,-,-,-,-,-,-,-,-
-,,-,,,,,2019-04,,,,88.263783,,CPCB,126.9,,,,0.01,,Near Galvanisation Unit Howrah,-,22.598719,,,,HOWRAH,,Bhagirathi and others (Ganga Lower),,-,,,,814,2,,,West Bengal,53.7,7,-,6,,,100,,0.02,,,0.06,,,,,,,,,,2,,,,,,0.54,,,,,,,,,,,1518,0.1,,,,,,,7,0.01,0.1,,,,,450,Ganga Basin,,-,-,-,-,-,-,-,-,-,-,-,-,-,-,-,-,-,-,-,-,-,-,-,-,-,-,-,-,-,-,-,-,-,-,-,-,-,-,-,-,-,-,-,-,-,-,-,-,-,-,-,-,-,-,-,-,-,-,-,-,-,-,-,-,-,-,-,-,-,-,-,-,-,-,-,-,-,-,-,-
-,,-,,,,,2019-04,,,,88.107169,,CPCB,52.5,,,,0.01,,Near Ioc Refinery Haldia West Bengal,-,22.045697,,,,MEDINIPUR,,Damodar,,-,,,,1254,,,,West Bengal,39.3,8.1,-,1.2,,,567.5,,0.02,,,0.06,,,,,,,,,,,,,,,,0.25,,,,,,,,,,,2090,0.1,,,,,,,7.7,0.01,0.17,,,,,311.2,Ganga Basin,,-,-,-,-,-,-,-,-,-,-,-,-,-,-,-,-,-,-,-,-,-,-,-,-,-,-,-,-,-,-,-,-,-,-,-,-,-,-,-,-,-,-,-,-,-,-,-,-,-,-,-,-,-,-,-,-,-,-,-,-,-,-,-,-,-,-,-,-,-,-,-,-,-,-,-,-,-,-,-,-
-,,-,,,,,2019-04,,,,78.724478,,CPCB,180,,,,0.12,,Near M/S Kumar Inter National Lakdi Fazalpur Delhi Road Moradabad,-,28.821631,,,,MORADABAD,,Ramganga,,-,,,,480,2,,,Uttar Pradesh,80,,-,,,,77,,0.02,,,0.06,,,,,,,,,,37,,,,,,0.2,,,,,,,,,,,236,,,,,,,,7.2,,0.35,,,,,,Ganga Basin,,-,-,-,-,-,-,-,-,-,-,-,-,-,-,-,-,-,-,-,-,-,-,-,-,-,-,-,-,-,-,-,-,-,-,-,-,-,-,-,-,-,-,-,-,-,-,-,-,-,-,-,-,-,-,-,-,-,-,-,-,-,-,-,-,-,-,-,-,-,-,-,-,-,-,-,-,-,-,-,-
-,,-,,,,,2019-04,,,,73.698192,,CPCB,32,,,,,,Near Rana Pratap Nagar Railway Station Udaipur,-,24.567797,,,,UDAIPUR,,Banas,,-,,,,672,3,,,Rajasthan,13.7,20.8,-,,,,104,,,,,,,,,,,1.6,,,,3,,,,,,1.06,,,,,,,,,,,880,,,,,,,,7.4,,,,,,,152,Ganga Basin,,-,-,-,-,-,-,-,-,-,-,-,-,-,-,-,-,-,-,-,-,-,-,-,-,-,-,-,-,-,-,-,-,-,-,-,-,-,-,-,-,-,-,-,-,-,-,-,-,-,-,-,-,-,-,-,-,-,-,-,-,-,-,-,-,-,-,-,-,-,-,-,-,-,-,-,-,-,-,-,-
-,,-,,,,,2019-04,,,,75.784647,,CPCB,62.4,,,,,,Near Samshan Vishwakarma Nagar Maharanifarm Jaipur,-,26.850806,,,,JAIPUR,,Banas,,-,,,,642,3,,,Rajasthan,13.7,33.3,-,,,,104,,,,,,,,,,,1.34,,,,3,,,,,,0.7,,,,,,,,,,,850,,,,,,,,7.6,,,,,,,232,Ganga Basin,,-,-,-,-,-,-,-,-,-,-,-,-,-,-,-,-,-,-,-,-,-,-,-,-,-,-,-,-,-,-,-,-,-,-,-,-,-,-,-,-,-,-,-,-,-,-,-,-,-,-,-,-,-,-,-,-,-,-,-,-,-,-,-,-,-,-,-,-,-,-,-,-,-,-,-,-,-,-,-,-
-,,-,,,,,2019-04,,,,75.792997,,CPCB,70.4,,,,,,Near Shree Kalyaneshwar Mahadev Temple Jai Singh Pura Khurd Jaipur.,-,26.881422,,,,JAIPUR,,Banas,,-,,,,1302,3,,,Rajasthan,44.9,35.9,-,,,,84,,,,,,,,,,,2.1,,,,3,,,,,,1.02,,,,,,,,,,,1700,,,,,,,,7.4,,,,,,,288,Ganga Basin,,-,-,-,-,-,-,-,-,-,-,-,-,-,-,-,-,-,-,-,-,-,-,-,-,-,-,-,-,-,-,-,-,-,-,-,-,-,-,-,-,-,-,-,-,-,-,-,-,-,-,-,-,-,-,-,-,-,-,-,-,-,-,-,-,-,-,-,-,-,-,-,-,-,-,-,-,-,-,-,-
-,,-,,,,,2019-04,,,,88.33035,,CPCB,60,,,,77,,Near The Phosphate Company-Rishra,-,22.723931,,,,HUGLI,,Bhagirathi and others (Ganga Lower),,-,,,,482,,,,West Bengal,30,,-,12.2,,,65.6,,0.02,,,0.06,,,,,,0.56,,,,,,,,,,0.52,,,,,,,,,,,893,0.1,,,,,,,7.4,39.88,8.6,,,,,380,Ganga Basin,,-,-,-,-,-,-,-,-,-,-,-,-,-,-,-,-,-,-,-,-,-,-,-,-,-,-,-,-,-,-,-,-,-,-,-,-,-,-,-,-,-,-,-,-,-,-,-,-,-,-,-,-,-,-,-,-,-,-,-,-,-,-,-,-,-,-,-,-,-,-,-,-,-,-,-,-,-,-,-,-
-,,-,,,,,2019-04,,,,73.758661,,CPCB,44.8,,,,,,Near Uit Bridge Udaipur,-,24.768897,,,,RAJSAMAND,,Banas,,-,,,,1324,4,,,Rajasthan,8.8,27.2,-,,,,290,,,,,,,,,,,,,,,4,,,,,,1.02,,,,,,,,,,,1690,,,,,,,,7.1,,,,,,,180,Ganga Basin,,-,-,-,-,-,-,-,-,-,-,-,-,-,-,-,-,-,-,-,-,-,-,-,-,-,-,-,-,-,-,-,-,-,-,-,-,-,-,-,-,-,-,-,-,-,-,-,-,-,-,-,-,-,-,-,-,-,-,-,-,-,-,-,-,-,-,-,-,-,-,-,-,-,-,-,-,-,-,-,-
-,,-,,,,,2019-04,,,,73.688308,,CPCB,60.8,,,,,,New Fatehpura 200 Ft.From Panchwati Nallah Udaipur,-,24.604031,,,,UDAIPUR,,Banas,,-,,,,157,3,,,Rajasthan,10.7,18.4,-,,,,310,,,,,,,,,,,1.76,,,,7,,,,,,0.92,,,,,,,,,,,2000,,,,,,,,7.2,,,,,,,216,Ganga Basin,,-,-,-,-,-,-,-,-,-,-,-,-,-,-,-,-,-,-,-,-,-,-,-,-,-,-,-,-,-,-,-,-,-,-,-,-,-,-,-,-,-,-,-,-,-,-,-,-,-,-,-,-,-,-,-,-,-,-,-,-,-,-,-,-,-,-,-,-,-,-,-,-,-,-,-,-,-,-,-,-
-,,-,,,,,2019-04,,,,73.684687,,CPCB,56,,,,,,Open Well Of Saras Dairy Vilas Nh-08 Udaipur,-,24.537814,,,,UDAIPUR,,Banas,,-,,,,1046,4,,,Rajasthan,45.9,20.8,-,,,,232,,,,,,,,,,,1.66,,,,11,,,,,,1,,,,,,,,,,,1370,,,,,,,,7.2,,,,,,,128,Ganga Basin,,-,-,-,-,-,-,-,-,-,-,-,-,-,-,-,-,-,-,-,-,-,-,-,-,-,-,-,-,-,-,-,-,-,-,-,-,-,-,-,-,-,-,-,-,-,-,-,-,-,-,-,-,-,-,-,-,-,-,-,-,-,-,-,-,-,-,-,-,-,-,-,-,-,-,-,-,-,-,-,-
-,,-,,,,,2019-04,,,,77.444436,,CPCB,108,,,,,,Open Well/Tube Well Industrial Area Govindpura Bhopal M.P,-,23.247147,,,,BHOPAL,,Yamuna Lower,,-,,,,228,,,,Madhya Pradesh,48,19.2,-,1.6,,,32.5,,,,,,,,,,,1,,,,40,,,,,,,,,,,,,,,,,366,,,,,,,,7.2,,,,,,,164,Ganga Basin,,-,-,-,-,-,-,-,-,-,-,-,-,-,-,-,-,-,-,-,-,-,-,-,-,-,-,-,-,-,-,-,-,-,-,-,-,-,-,-,-,-,-,-,-,-,-,-,-,-,-,-,-,-,-,-,-,-,-,-,-,-,-,-,-,-,-,-,-,-,-,-,-,-,-,-,-,-,-,-,-
-,,-,,,,,2019-04,,,,77.503906,,CPCB,124,,,,,,Open Well/Tube Well Industrial Area Mandideep Distt. Raisen M.P,-,23.099147,,,,RAISEN,,Yamuna Lower,,-,,,,164,,,,Madhya Pradesh,68,19.2,-,2.4,,,48.3,,,,,,,,,,,1.5,,,,94,,,,,,,,,,,,,,,,,264,,,,,,,,8,,,,,,,164,Ganga Basin,,-,-,-,-,-,-,-,-,-,-,-,-,-,-,-,-,-,-,-,-,-,-,-,-,-,-,-,-,-,-,-,-,-,-,-,-,-,-,-,-,-,-,-,-,-,-,-,-,-,-,-,-,-,-,-,-,-,-,-,-,-,-,-,-,-,-,-,-,-,-,-,-,-,-,-,-,-,-,-,-
-,,-,,,,,2019-04,,,,75.785271,,CPCB,32,,,,,,Phed Well Near Railway Line Jhotawara Jaipur Rajasthan,-,26.917255,,,,JAIPUR,,Banas,,-,,,,452,3,,,Rajasthan,14.6,8.3,-,,,,76,,,,,,,,,,,2.1,,,,3,,,,,,0.8,,,,,,,,,,,590,,,,,,,,8.1,,,,,,,144,Ganga Basin,,-,-,-,-,-,-,-,-,-,-,-,-,-,-,-,-,-,-,-,-,-,-,-,-,-,-,-,-,-,-,-,-,-,-,-,-,-,-,-,-,-,-,-,-,-,-,-,-,-,-,-,-,-,-,-,-,-,-,-,-,-,-,-,-,-,-,-,-,-,-,-,-,-,-,-,-,-,-,-,-
-,,-,,,,,2019-04,,,,77.344133,,CPCB,203,,,,0.59,,Pilkhua Industrial Area Ghaziabad U.P,-,28.637897,,,,G.B. Nagar,,Yamuna Upper,,-,,,,902,2,,,Uttar Pradesh,140,,-,,,,45,,0.302,,,,,,,,,0.38,,,,2,,,,,,0.2,,,,,,,,,,,1198,0.47,,,,,,,6.7,0.027,0.5,,,,,380,Ganga Basin,,-,-,-,-,-,-,-,-,-,-,-,-,-,-,-,-,-,-,-,-,-,-,-,-,-,-,-,-,-,-,-,-,-,-,-,-,-,-,-,-,-,-,-,-,-,-,-,-,-,-,-,-,-,-,-,-,-,-,-,-,-,-,-,-,-,-,-,-,-,-,-,-,-,-,-,-,-,-,-,-
-,,-,,,,,2019-04,,,,75.786686,,CPCB,107.2,,,,,,Public Hand Pump Before Sanganer Pulia Rajasthan,-,26.815875,,,,JAIPUR,,Banas,,-,,,,1656,3,,,Rajasthan,17.6,34,-,,,,240,,,,,,,,,,,1.84,,,,7,,,,,,0.92,,,,,,,,,,,2200,,,,,,,,7.2,,,,,,,412,Ganga Basin,,-,-,-,-,-,-,-,-,-,-,-,-,-,-,-,-,-,-,-,-,-,-,-,-,-,-,-,-,-,-,-,-,-,-,-,-,-,-,-,-,-,-,-,-,-,-,-,-,-,-,-,-,-,-,-,-,-,-,-,-,-,-,-,-,-,-,-,-,-,-,-,-,-,-,-,-,-,-,-,-
-,,-,,,,,2019-04,,,,88.445233,,CPCB,31.5,,,,0.01,,Rajarhat - New Township,-,22.618333,,,,NORTH 24 PARGANAS,,Bhagirathi and others (Ganga Lower),,-,,,,198,,,,West Bengal,8.9,8.6,-,7.1,,,20,,0.02,,,0.06,,,,,,,,,,,,,,,,0.35,,,,,,,,,,,387,0.1,,,,,,,7.8,0.01,0.06,,,,,148,Ganga Basin,,-,-,-,-,-,-,-,-,-,-,-,-,-,-,-,-,-,-,-,-,-,-,-,-,-,-,-,-,-,-,-,-,-,-,-,-,-,-,-,-,-,-,-,-,-,-,-,-,-,-,-,-,-,-,-,-,-,-,-,-,-,-,-,-,-,-,-,-,-,-,-,-,-,-,-,-,-,-,-,-
-,,-,,,,,2019-04,,,,88.424636,,CPCB,63.9,,,,0.01,,Residential Area - Sonarpur,-,22.440875,,,,SOUTH 24 PARGANAS,,Bhagirathi and others (Ganga Lower),,-,,,,590,,,,West Bengal,25.7,,-,2.7,,,105,,0.02,,,0.06,,,,,,0.48,,,,,,,,,,0.3,,,,,,,,,,,949,0.1,,,,,,,7.9,0.01,0.15,,,,,350,Ganga Basin,,-,-,-,-,-,-,-,-,-,-,-,-,-,-,-,-,-,-,-,-,-,-,-,-,-,-,-,-,-,-,-,-,-,-,-,-,-,-,-,-,-,-,-,-,-,-,-,-,-,-,-,-,-,-,-,-,-,-,-,-,-,-,-,-,-,-,-,-,-,-,-,-,-,-,-,-,-,-,-,-
-,,-,,,,,2019-04,,,,76.62006,,CPCB,,,,,0.07,,Riico Pump House Near Monto Motors Mia Alwar Rajasthan,-,27.566155,,,,ALWAR,,Yamuna Middle,,-,,,,752,3,,,Rajasthan,-,20.8,-,,,,116,,0.02,,,0.06,,,,,,2.74,,,,3,,,,,,1.1,,,,,,,,,,,1020,,,,,,,,7.2,,0.13,,,,,148,Ganga Basin,,-,-,-,-,-,-,-,-,-,-,-,-,-,-,-,-,-,-,-,-,-,-,-,-,-,-,-,-,-,-,-,-,-,-,-,-,-,-,-,-,-,-,-,-,-,-,-,-,-,-,-,-,-,-,-,-,-,-,-,-,-,-,-,-,-,-,-,-,-,-,-,-,-,-,-,-,-,-,-,-
-,,-,,,,,2019-04,,,,76.850357,,CPCB,32,,,,,,Riico Tubewell No. 31 Located Near Bkl Lifestyle Plot No. 1228 Ria Bhiwadi Opp. To Acro Paints-Ii T,-,28.217146,,,,ALWAR,,Yamuna Upper,,-,,,,1002,3,,,Rajasthan,26.4,11.7,-,,,,112,,,,,,,,,,,2.8,,,,3,,,,,,1,,,,,,,,,,,1370,,,,,,,,7.9,,,,,,,224,Ganga Basin,,-,-,-,-,-,-,-,-,-,-,-,-,-,-,-,-,-,-,-,-,-,-,-,-,-,-,-,-,-,-,-,-,-,-,-,-,-,-,-,-,-,-,-,-,-,-,-,-,-,-,-,-,-,-,-,-,-,-,-,-,-,-,-,-,-,-,-,-,-,-,-,-,-,-,-,-,-,-,-,-
-,,-,,,,,2019-04,,,,76.836572,,CPCB,30.4,,,,,,Riico Tubewell No. 34 Located On Road Side Of 220 Kva Power Station Close To Bkt(Esi Hospital) Ramp,-,28.214214,,,,REWARI,,Yamuna Upper,,-,,,,1006,3,,,Haryana,20.5,12.5,-,,,,112,,,,,,,,,,,1.84,,,,3,,,,,,1.06,,,,,,,,,,,1380,,,,,,,,7.9,,,,,,,200,Ganga Basin,,-,-,-,-,-,-,-,-,-,-,-,-,-,-,-,-,-,-,-,-,-,-,-,-,-,-,-,-,-,-,-,-,-,-,-,-,-,-,-,-,-,-,-,-,-,-,-,-,-,-,-,-,-,-,-,-,-,-,-,-,-,-,-,-,-,-,-,-,-,-,-,-,-,-,-,-,-,-,-,-
-,,-,,,,,2019-04,,,,76.847515,,CPCB,68.8,,,,,,Riico Tubewell No. 3 Located On Road Side Close To Indag Rubber And Opposite To Honda Showroom Neel,-,28.207424,,,,ALWAR,,Yamuna Upper,,-,,,,1216,3,,,Rajasthan,57.6,10,-,,,,352,,,,,,,,,,,2.36,,,,3,,,,,,1.02,,,,,,,,,,,1690,,,,,,,,7.9,,,,,,,116,Ganga Basin,,-,-,-,-,-,-,-,-,-,-,-,-,-,-,-,-,-,-,-,-,-,-,-,-,-,-,-,-,-,-,-,-,-,-,-,-,-,-,-,-,-,-,-,-,-,-,-,-,-,-,-,-,-,-,-,-,-,-,-,-,-,-,-,-,-,-,-,-,-,-,-,-,-,-,-,-,-,-,-,-
-,,-,,,,,2019-04,,,,76.282786,,CPCB,,,,,0.1,,Riico Tube Well Ria Behror Rajasthan,-,27.881869,,,,ALWAR,,Yamuna Upper,,-,,,,1164,3,,,Rajasthan,-,15,-,,,,252,,0.02,,,0.06,,,,,,1.84,,,,3,,,,,,1.02,,,,,,,,,,,1580,,,,,,,,7.6,,0.11,,,,,188,Ganga Basin,,-,-,-,-,-,-,-,-,-,-,-,-,-,-,-,-,-,-,-,-,-,-,-,-,-,-,-,-,-,-,-,-,-,-,-,-,-,-,-,-,-,-,-,-,-,-,-,-,-,-,-,-,-,-,-,-,-,-,-,-,-,-,-,-,-,-,-,-,-,-,-,-,-,-,-,-,-,-,-,-
-,,-,,,,,2019-04,,,,76.409481,,CPCB,312,,,,0.06,,Riico Tube Well Ria Neemrana Rajasthan,-,28.002058,,,,ALWAR,,Yamuna Upper,,-,,,,1542,3,,,Rajasthan,36.1,18.3,-,,,,312,,0.02,,,0.06,,,,,,2,,,,3,,,,,,1.1,,,,,,,,,,,2100,,,,,,,,7.1,,0.1,,,,,,Ganga Basin,,-,-,-,-,-,-,-,-,-,-,-,-,-,-,-,-,-,-,-,-,-,-,-,-,-,-,-,-,-,-,-,-,-,-,-,-,-,-,-,-,-,-,-,-,-,-,-,-,-,-,-,-,-,-,-,-,-,-,-,-,-,-,-,-,-,-,-,-,-,-,-,-,-,-,-,-,-,-,-,-
-,,-,,,,,2019-04,,,,76.446314,,CPCB,,,,,0.32,,Riico Tube Well Ria Shahjahanpur Rajasthan,-,27.996564,,,,ALWAR,,Yamuna Upper,,-,,,,3046,3,,,Rajasthan,-,20,-,,,,956,,0.02,,,0.06,,,,,,2.06,,,,3,,,,,,1.06,,,,,,,,,,,4100,,,,,,,,6.9,,0.44,,,,,324,Ganga Basin,,-,-,-,-,-,-,-,-,-,-,-,-,-,-,-,-,-,-,-,-,-,-,-,-,-,-,-,-,-,-,-,-,-,-,-,-,-,-,-,-,-,-,-,-,-,-,-,-,-,-,-,-,-,-,-,-,-,-,-,-,-,-,-,-,-,-,-,-,-,-,-,-,-,-,-,-,-,-,-,-
-,,-,,,,,2019-04,,,,76.850719,,CPCB,51.2,,,,,,Riico Tubwell No. 1 Located Near Ganpati Tubes & Fabrication (P) Ltd Sp-A-53(A) Ria Bhiwadi Opposit,-,28.205597,,,,ALWAR,,Yamuna Upper,,-,,,,1024,4,,,Rajasthan,36.1,22.5,-,,,,104,,,,,,,,,,,2.46,,,,4,,,,,,0.84,,,,,,,,,,,1400,,,,,,,,7.9,,,,,,,252,Ganga Basin,,-,-,-,-,-,-,-,-,-,-,-,-,-,-,-,-,-,-,-,-,-,-,-,-,-,-,-,-,-,-,-,-,-,-,-,-,-,-,-,-,-,-,-,-,-,-,-,-,-,-,-,-,-,-,-,-,-,-,-,-,-,-,-,-,-,-,-,-,-,-,-,-,-,-,-,-,-,-,-,-
-,,-,,,,,2019-04,,,,76.863691,,CPCB,49.6,,,,,,Riico Tubwell No. 27 Located Opposite To Megatech International G-1428 Phase-V Rampur Mundana In Ri,-,28.207565,,,,ALWAR,,Yamuna Upper,,-,,,,964,3,,,Rajasthan,36.1,9.2,-,,,,228,,,,,,,,,,,2.06,,,,3,,,,,,1,,,,,,,,,,,1340,,,,,,,,7.8,,,,,,,120,Ganga Basin,,-,-,-,-,-,-,-,-,-,-,-,-,-,-,-,-,-,-,-,-,-,-,-,-,-,-,-,-,-,-,-,-,-,-,-,-,-,-,-,-,-,-,-,-,-,-,-,-,-,-,-,-,-,-,-,-,-,-,-,-,-,-,-,-,-,-,-,-,-,-,-,-,-,-,-,-,-,-,-,-
-,,-,,,,,2019-04,,,,88.329214,,CPCB,34,,,,0.01,,Rishra West Bengal,-,22.724719,,,,HUGLI,,Bhagirathi and others (Ganga Lower),,-,,,,596,,,,West Bengal,24,,-,1.2,,,39.1,,0.02,,,0.06,,,,,,,,,,,,,,,,0.45,,,,,,,,,,,722,0.1,,,,,,,7.4,0.01,0.06,,,,,33,Ganga Basin,,-,-,-,-,-,-,-,-,-,-,-,-,-,-,-,-,-,-,-,-,-,-,-,-,-,-,-,-,-,-,-,-,-,-,-,-,-,-,-,-,-,-,-,-,-,-,-,-,-,-,-,-,-,-,-,-,-,-,-,-,-,-,-,-,-,-,-,-,-,-,-,-,-,-,-,-,-,-,-,-
-,,-,,,,,2019-04,,,,77.344944,,CPCB,310,,,,0.44,,Sahibabad Industrial Area Ghaziabad U.P,-,28.675322,,,,GHAZIABAD,,Yamuna Upper,,-,,,,1112,2,,,Uttar Pradesh,194,,-,,,,545,,0.036,,,,,,,,,0.42,,,,2,,,,,,1.05,,,,,,,,,,,1730,0.29,,,,,,,6.6,0.015,0.49,,,,,128,Ganga Basin,,-,-,-,-,-,-,-,-,-,-,-,-,-,-,-,-,-,-,-,-,-,-,-,-,-,-,-,-,-,-,-,-,-,-,-,-,-,-,-,-,-,-,-,-,-,-,-,-,-,-,-,-,-,-,-,-,-,-,-,-,-,-,-,-,-,-,-,-,-,-,-,-,-,-,-,-,-,-,-,-
-,,-,,,,,2019-04,,,,87.074119,,CPCB,78.4,,,,,,Sati Ghat At Bankura Town,-,23.239772,,,,BANKURA,,Damodar,,-,,,,564,,,,West Bengal,47,7.8,-,2.7,,,361.9,,,,,,,,,,,,,,,,,,,,,0.77,,,,,,,,,,,1502,,,,,,,,8.3,,,,,,,650,Ganga Basin,,-,-,-,-,-,-,-,-,-,-,-,-,-,-,-,-,-,-,-,-,-,-,-,-,-,-,-,-,-,-,-,-,-,-,-,-,-,-,-,-,-,-,-,-,-,-,-,-,-,-,-,-,-,-,-,-,-,-,-,-,-,-,-,-,-,-,-,-,-,-,-,-,-,-,-,-,-,-,-,-
-,,-,,,,,2019-04,,,,87.320003,,CPCB,20.8,,,,,,Sdo Office At Bishnupur Town,-,23.079997,,,,BANKURA,,Damodar,,-,,,,136,,,,West Bengal,12.5,6.1,-,,,,62.4,,,,,,,,,,,0.92,,,,,,,,,,0.2,,,,,,,,,,,216,,,,,,,,7,,,,,,,60,Ganga Basin,,-,-,-,-,-,-,-,-,-,-,-,-,-,-,-,-,-,-,-,-,-,-,-,-,-,-,-,-,-,-,-,-,-,-,-,-,-,-,-,-,-,-,-,-,-,-,-,-,-,-,-,-,-,-,-,-,-,-,-,-,-,-,-,-,-,-,-,-,-,-,-,-,-,-,-,-,-,-,-,-
-,,-,,,,,2019-04,,,,88.501397,,CPCB,66,,,,45,,Sdo Office Krishnanagar,-,23.400875,,,,NADIA,,Bhagirathi and others (Ganga Lower),,-,,,,424,,,,West Bengal,28,,-,5.9,,,22.5,,0.02,,,0.06,,,,,,,,,,,,,,,,0.2,,,,,,,,,,,746,0.1,,,,,,,7.6,0.01,0.06,,,,,384,Ganga Basin,,-,-,-,-,-,-,-,-,-,-,-,-,-,-,-,-,-,-,-,-,-,-,-,-,-,-,-,-,-,-,-,-,-,-,-,-,-,-,-,-,-,-,-,-,-,-,-,-,-,-,-,-,-,-,-,-,-,-,-,-,-,-,-,-,-,-,-,-,-,-,-,-,-,-,-,-,-,-,-,-
-,,-,,,,,2019-04,,,,88.528681,,CPCB,40,,,,514,,Sdo Office Ranaghat,-,23.753036,,,,NADIA,,Bhagirathi and others (Ganga Lower),,-,,,,322,,,,West Bengal,23,,-,3.6,,,8.8,,,,,0.06,,,,,,0.43,,,,,,,,,,0.2,,,,,,,,,,,571,0.1,,,,,,,8.3,31.5,0.93,,,,,310,Ganga Basin,,-,-,-,-,-,-,-,-,-,-,-,-,-,-,-,-,-,-,-,-,-,-,-,-,-,-,-,-,-,-,-,-,-,-,-,-,-,-,-,-,-,-,-,-,-,-,-,-,-,-,-,-,-,-,-,-,-,-,-,-,-,-,-,-,-,-,-,-,-,-,-,-,-,-,-,-,-,-,-,-
-,,-,,,,,2019-04,,,,77.482167,,CPCB,160,,,,,,Sujan Ganga Bharatpur Rajasthan,-,27.216742,,,,BHARATPUR,,Yamuna Middle,,-,,,,4688,75,,,Rajasthan,70.8,41.8,-,,,,1420,,,,,,,,,,,4.56,,,,210,,,,,,1.18,,,,,,,,,,,5900,,,,,,,,7.9,,,,,,,380,Ganga Basin,,-,-,-,-,-,-,-,-,-,-,-,-,-,-,-,-,-,-,-,-,-,-,-,-,-,-,-,-,-,-,-,-,-,-,-,-,-,-,-,-,-,-,-,-,-,-,-,-,-,-,-,-,-,-,-,-,-,-,-,-,-,-,-,-,-,-,-,-,-,-,-,-,-,-,-,-,-,-,-,-
-,,-,,,,,2019-04,,,,87.533333,,CPCB,31.2,,,,,,Suri Town Near Bus Stand,-,23.916667,,,,BIRBHUM,,Bhagirathi and others (Ganga Lower),,-,,,,580,2,,,West Bengal,18.7,,-,6.2,,,150,,,,,,,,,,,0.58,,,,4,,,,,,0.29,,,,,,,,,,,835,,,,,,,,8.3,,,,,,,200,Ganga Basin,,-,-,-,-,-,-,-,-,-,-,-,-,-,-,-,-,-,-,-,-,-,-,-,-,-,-,-,-,-,-,-,-,-,-,-,-,-,-,-,-,-,-,-,-,-,-,-,-,-,-,-,-,-,-,-,-,-,-,-,-,-,-,-,-,-,-,-,-,-,-,-,-,-,-,-,-,-,-,-,-
-,,-,,,,,2019-04,,,,73.686478,,CPCB,43.2,,,,,,Swaroop Nagar Udaipur,-,24.589079,,,,UDAIPUR,,Banas,,-,,,,492,20,,,Rajasthan,23.4,33.6,-,3.5,,,650,,,,,,,,,,,2.2,,,,75,,,,,,0.96,,,,,,,,,,,650,,,,,,,,8.7,,,,,,,180,Ganga Basin,,-,-,-,-,-,-,-,-,-,-,-,-,-,-,-,-,-,-,-,-,-,-,-,-,-,-,-,-,-,-,-,-,-,-,-,-,-,-,-,-,-,-,-,-,-,-,-,-,-,-,-,-,-,-,-,-,-,-,-,-,-,-,-,-,-,-,-,-,-,-,-,-,-,-,-,-,-,-,-,-
-,,-,,,,,2019-04,,,,88.378106,,CPCB,109.2,,,,0.01,,Tangra Calcutta  West Bengal,-,22.5625,,,,KOLKATA,,Bhagirathi and others (Ganga Lower),,-,,,,1444,110,,,West Bengal,60.8,,-,86.6,,,424.9,,0.02,,,0.06,,,,,,,,,,220,,,,,,0.39,,,,,,,,,,,2154,0.1,,,,,,,7.6,0.01,1.08,,,,,370,Ganga Basin,,-,-,-,-,-,-,-,-,-,-,-,-,-,-,-,-,-,-,-,-,-,-,-,-,-,-,-,-,-,-,-,-,-,-,-,-,-,-,-,-,-,-,-,-,-,-,-,-,-,-,-,-,-,-,-,-,-,-,-,-,-,-,-,-,-,-,-,-,-,-,-,-,-,-,-,-,-,-,-,-
-,,-,,,,,2019-04,,,,88.390192,,CPCB,176.9,,,,0.01,,Topsia Calcutta West Bengal,-,22.533694,,,,SOUTH 24 PARGANAS,,Bhagirathi and others (Ganga Lower),,-,,,,1672,4,,,West Bengal,74.8,5.7,-,39.5,,,474.9,,0.02,,,0.06,,,,,,,,,,9,,,,,,0.48,,,,,,,,,,,2343,0.1,,,,,,,7.4,0.01,1,,,,,340,Ganga Basin,,-,-,-,-,-,-,-,-,-,-,-,-,-,-,-,-,-,-,-,-,-,-,-,-,-,-,-,-,-,-,-,-,-,-,-,-,-,-,-,-,-,-,-,-,-,-,-,-,-,-,-,-,-,-,-,-,-,-,-,-,-,-,-,-,-,-,-,-,-,-,-,-,-,-,-,-,-,-,-,-
-,,-,,,,,2019-04,,,,75.599048,,CPCB,392,,,,0.01,,Tube Well At Sector-Iii Pithampur Industrial Area,-,22.62421,,,,DHAR,,Chambal Upper,,-,,,,989,2,,,Madhya Pradesh,104,20.3,-,,,,300.5,,0.02,,,0.06,,,,,,2.92,,,,11,,,,,,0.9,,,,,,,,,,,1585,,,,,,,,8,,0.06,,,,,312,Ganga Basin,,-,-,-,-,-,-,-,-,-,-,-,-,-,-,-,-,-,-,-,-,-,-,-,-,-,-,-,-,-,-,-,-,-,-,-,-,-,-,-,-,-,-,-,-,-,-,-,-,-,-,-,-,-,-,-,-,-,-,-,-,-,-,-,-,-,-,-,-,-,-,-,-,-,-,-,-,-,-,-,-
-,,-,,,,,2019-04,,,,76.020183,,CPCB,208,,,,,,Tube Well/ Hand Pump At Industrial Area Dewas,-,22.943809,,,,DEWAS,,Chambal Upper,,-,,,,1284,,,,Madhya Pradesh,118,10,-,2.6,,,178,,,,,,,,,,,5.6,,,,,,,,,,,,,,,,,,,,,1864,,,,,,,,7.8,,,,,,,192,Ganga Basin,,-,-,-,-,-,-,-,-,-,-,-,-,-,-,-,-,-,-,-,-,-,-,-,-,-,-,-,-,-,-,-,-,-,-,-,-,-,-,-,-,-,-,-,-,-,-,-,-,-,-,-,-,-,-,-,-,-,-,-,-,-,-,-,-,-,-,-,-,-,-,-,-,-,-,-,-,-,-,-,-
-,,-,,,,,2019-04,,,,78.239367,,CPCB,224,,,,,,Tube Well In Industrial Area At Gajraula Moradabad U.P,-,28.844842,,,,JYOTIBA PHULE NAGAR,,Above Ramganga Confluence,,-,,,,228,2,,,Uttar Pradesh,134,12,-,3.7,,,48,,,,,,,,,,,0.38,,,,2,,,,,,,,,,,,,,,,,413,,,,,,,,7.4,,,,,,,374,Ganga Basin,,-,-,-,-,-,-,-,-,-,-,-,-,-,-,-,-,-,-,-,-,-,-,-,-,-,-,-,-,-,-,-,-,-,-,-,-,-,-,-,-,-,-,-,-,-,-,-,-,-,-,-,-,-,-,-,-,-,-,-,-,-,-,-,-,-,-,-,-,-,-,-,-,-,-,-,-,-,-,-,-
-,,-,,,,,2019-04,,,,88.107339,,CPCB,56.9,,,,0.01,,Uluberia College At Howrah,-,22.468903,,,,HOWRAH,,Bhagirathi and others (Ganga Lower),,-,,,,594,,,,West Bengal,25.2,,-,8.8,,,110,,0.02,,,0.06,,,,,,,,,,,,,,,,0.29,,,,,,,,,,,944,0.1,,,,,,,7.5,0.01,0.24,,,,,370,Ganga Basin,,-,-,-,-,-,-,-,-,-,-,-,-,-,-,-,-,-,-,-,-,-,-,-,-,-,-,-,-,-,-,-,-,-,-,-,-,-,-,-,-,-,-,-,-,-,-,-,-,-,-,-,-,-,-,-,-,-,-,-,-,-,-,-,-,-,-,-,-,-,-,-,-,-,-,-,-,-,-,-,-
-,,-,,,,,2019-04,,,,76.816286,,CPCB,33.6,,,,,,Village Agyara Tehsil- Ramgarh Alwar Rajasthan,-,27.587299,,,,ALWAR,,Yamuna Middle,,-,,,,1152,3,,,Rajasthan,14.6,49.2,-,,,,156,,,,,,,,,,,2.06,,,,7,,,,,,1.16,,,,,,,,,,,1630,,,,,,,,7.1,,,,,,,160,Ganga Basin,,-,-,-,-,-,-,-,-,-,-,-,-,-,-,-,-,-,-,-,-,-,-,-,-,-,-,-,-,-,-,-,-,-,-,-,-,-,-,-,-,-,-,-,-,-,-,-,-,-,-,-,-,-,-,-,-,-,-,-,-,-,-,-,-,-,-,-,-,-,-,-,-,-,-,-,-,-,-,-,-
-,,-,,,,,2019-04,,,,76.991556,,CPCB,35.2,,,,,,Village Bager Meo Tehsil- Ramgarh Alwar Rajasthan,-,27.718031,,,,GURGAON,,Yamuna Middle,,-,,,,2618,3,,,Haryana,28.3,52.5,-,,,,744,,,,,,,,,,,2.2,,,,7,,,,,,1.12,,,,,,,,,,,3500,,,,,,,,7,,,,,,,224,Ganga Basin,,-,-,-,-,-,-,-,-,-,-,-,-,-,-,-,-,-,-,-,-,-,-,-,-,-,-,-,-,-,-,-,-,-,-,-,-,-,-,-,-,-,-,-,-,-,-,-,-,-,-,-,-,-,-,-,-,-,-,-,-,-,-,-,-,-,-,-,-,-,-,-,-,-,-,-,-,-,-,-,-
-,,-,,,,,2019-04,,,,87.683564,,CPCB,22.4,,,,,,Visva Bharati,-,23.6804,,,,BIRBHUM,,Bhagirathi and others (Ganga Lower),,-,,,,290,,,,West Bengal,13.4,,-,7.4,,,45.2,,,,,,,,,,,0.87,,,,2,,,,,,0.32,,,,,,,,,,,507,,,,,,,,8.4,,,,,,,280,Ganga Basin,,-,-,-,-,-,-,-,-,-,-,-,-,-,-,-,-,-,-,-,-,-,-,-,-,-,-,-,-,-,-,-,-,-,-,-,-,-,-,-,-,-,-,-,-,-,-,-,-,-,-,-,-,-,-,-,-,-,-,-,-,-,-,-,-,-,-,-,-,-,-,-,-,-,-,-,-,-,-,-,-
-,,-,,,,,2019-04,,,,77.404928,,CPCB,104,,,,,,Well At Ibrahimganj Near Bus Stand Bhopal,-,23.268169,,,,BHOPAL,,Yamuna Lower,,-,,,,166,,,,Madhya Pradesh,52,9.6,-,1.2,,,35.5,,,,,,,,,,,,,,,,,,,,,,,,,,,,,,,,269,,,,,,,,7.2,,,,,,,170,Ganga Basin,,-,-,-,-,-,-,-,-,-,-,-,-,-,-,-,-,-,-,-,-,-,-,-,-,-,-,-,-,-,-,-,-,-,-,-,-,-,-,-,-,-,-,-,-,-,-,-,-,-,-,-,-,-,-,-,-,-,-,-,-,-,-,-,-,-,-,-,-,-,-,-,-,-,-,-,-,-,-,-,-
-,,-,,,,,2019-04,,,,75.779194,,CPCB,110.4,,,,,,Well At India Public School Manpur Macheri Jaipur Rajasthan,-,26.847386,,,,JAIPUR,,Banas,,-,,,,1594,3,,,Rajasthan,40,13.3,-,,,,500,,,,,,,,,,,2.08,,,,3,,,,,,0.98,,,,,,,,,,,2100,,,,,,,,7.7,,,,,,,168,Ganga Basin,,-,-,-,-,-,-,-,-,-,-,-,-,-,-,-,-,-,-,-,-,-,-,-,-,-,-,-,-,-,-,-,-,-,-,-,-,-,-,-,-,-,-,-,-,-,-,-,-,-,-,-,-,-,-,-,-,-,-,-,-,-,-,-,-,-,-,-,-,-,-,-,-,-,-,-,-,-,-,-,-
-,,-,,,,,2019-04,,,,75.422434,,CPCB,250,,,,0.06,,Well At Mehatwas Nagda,-,23.45708,,,,UJJAIN,,Chambal Upper,,-,,,,900,,,,Madhya Pradesh,110,12,-,1.2,,,146,,,,,0.01,,,,,,3.69,,,,,,,,,,0.38,,,,,,,,,,,1210,0.1,,,,,,,7.6,0.001,0.11,,,,,180,Ganga Basin,,-,-,-,-,-,-,-,-,-,-,-,-,-,-,-,-,-,-,-,-,-,-,-,-,-,-,-,-,-,-,-,-,-,-,-,-,-,-,-,-,-,-,-,-,-,-,-,-,-,-,-,-,-,-,-,-,-,-,-,-,-,-,-,-,-,-,-,-,-,-,-,-,-,-,-,-,-,-,-,-
-,,-,,,,,2019-04,,,,77.059317,,CPCB,246,,,,,,Well At Near Primary School Pilukhedi Rajgarh.,-,23.490169,,,,RAJGARH,,Kali Sindh and others up to Confluence with Parbati,,-,,,,504,,,,Madhya Pradesh,140,50,-,,,,53.4,,,,,,,,,,,0.64,,,,,,,,,,,,,,,,,,,,,834,,,,,,,,7.7,,,,,,,390,Ganga Basin,,-,-,-,-,-,-,-,-,-,-,-,-,-,-,-,-,-,-,-,-,-,-,-,-,-,-,-,-,-,-,-,-,-,-,-,-,-,-,-,-,-,-,-,-,-,-,-,-,-,-,-,-,-,-,-,-,-,-,-,-,-,-,-,-,-,-,-,-,-,-,-,-,-,-,-,-,-,-,-,-
-,,-,,,,,2019-04,,,,77.615542,,CPCB,53.7,,,,1.4,,Well At Paonta Sahib,-,30.446322,,,,SIRMAUR,,Yamuna Upper,,-,,,,388,2,,,Himachal Pradesh,44,,-,,,,44,,0.02,,,0.06,,,,,,1.89,,,,2,,,,,,0.35,,,,,,,,,,,581,0.04,,,,,,,7.9,,0.38,,,,,355,Ganga Basin,,-,-,-,-,-,-,-,-,-,-,-,-,-,-,-,-,-,-,-,-,-,-,-,-,-,-,-,-,-,-,-,-,-,-,-,-,-,-,-,-,-,-,-,-,-,-,-,-,-,-,-,-,-,-,-,-,-,-,-,-,-,-,-,-,-,-,-,-,-,-,-,-,-,-,-,-,-,-,-,-
-,,-,,,,,2019-04,,,,75.878342,,CPCB,280,,,,0.01,,Well At Trenching Ground In The Premises Of M/S Lakhani Foot Wear Indore,-,22.703486,,,,INDORE,,Chambal Upper,,-,,,,1082,2,,,Madhya Pradesh,164,18.7,-,2.2,,,298.4,,0.02,,,0.06,,,,,,3.57,,,,5,,,,,,1.02,,,,,,,,,,,1688,,,,,,,,8,,0.03,,,,,168,Ganga Basin,,-,-,-,-,-,-,-,-,-,-,-,-,-,-,-,-,-,-,-,-,-,-,-,-,-,-,-,-,-,-,-,-,-,-,-,-,-,-,-,-,-,-,-,-,-,-,-,-,-,-,-,-,-,-,-,-,-,-,-,-,-,-,-,-,-,-,-,-,-,-,-,-,-,-,-,-,-,-,-,-
-,,-,,,,,2019-04,,,,75.847519,,CPCB,416,,,,0.01,,Well At Trenching Ground In The Premises Of M/S Rishabh Masala Udyog Indore,-,22.713525,,,,INDORE,,Chambal Upper,,-,,,,1216,2,,,Madhya Pradesh,208,23.7,-,2.6,,,528.3,,0.003,,,0.06,,,,,,4.06,,,,2,,,,,,1.08,,,,,,,,,,,2024,0.1,,,,,,,7.8,,0.06,,,,,276,Ganga Basin,,-,-,-,-,-,-,-,-,-,-,-,-,-,-,-,-,-,-,-,-,-,-,-,-,-,-,-,-,-,-,-,-,-,-,-,-,-,-,-,-,-,-,-,-,-,-,-,-,-,-,-,-,-,-,-,-,-,-,-,-,-,-,-,-,-,-,-,-,-,-,-,-,-,-,-,-,-,-,-,-
-,,-,,,,,2019-04,,,,75.92499,,CPCB,248,,,,0.01,,Well At Trenching Ground Near Garden Dev Guradiya Road Indore,-,22.678291,,,,INDORE,,Chambal Upper,,-,,,,770,2,,,Madhya Pradesh,104,11.8,-,,,,200.6,,0.02,,,0.06,,,,,,2.89,,,,55,,,,,,0.86,,,,,,,,,,,1289,0.01,,,,,,,7.1,,0.02,,,,,260,Ganga Basin,,-,-,-,-,-,-,-,-,-,-,-,-,-,-,-,-,-,-,-,-,-,-,-,-,-,-,-,-,-,-,-,-,-,-,-,-,-,-,-,-,-,-,-,-,-,-,-,-,-,-,-,-,-,-,-,-,-,-,-,-,-,-,-,-,-,-,-,-,-,-,-,-,-,-,-,-,-,-,-,-
-,,-,,,,,2019-04,,,,76.839031,,CPCB,51.2,,,,,,Well At Village Alupur Very Near Bhiwadi Industrial Area Bhiwadi Rajasthan,-,28.195754,,,,ALWAR,,Yamuna Upper,,-,,,,1118,4,,,Rajasthan,28.3,8.3,-,,,,340,,,,,,,,,,,2.06,,,,4,,,,,,0.9,,,,,,,,,,,1600,,,,,,,,7.9,,,,,,,240,Ganga Basin,,-,-,-,-,-,-,-,-,-,-,-,-,-,-,-,-,-,-,-,-,-,-,-,-,-,-,-,-,-,-,-,-,-,-,-,-,-,-,-,-,-,-,-,-,-,-,-,-,-,-,-,-,-,-,-,-,-,-,-,-,-,-,-,-,-,-,-,-,-,-,-,-,-,-,-,-,-,-,-,-
-,,-,,,,,2019-04,,,,76.864069,,CPCB,44.8,,,,,,Well At Village Bhiwadi  Very Near Bhiwadi To Bhiwadi Industrial Area Bhiwadi Rajasthan,-,28.191471,,,,ALWAR,,Yamuna Upper,,-,,,,1316,3,,,Rajasthan,24.4,12.5,-,,,,296,,,,,,,,,,,2.06,,,,3,,,,,,0.86,,,,,,,,,,,1820,,,,,,,,8.1,,,,,,,184,Ganga Basin,,-,-,-,-,-,-,-,-,-,-,-,-,-,-,-,-,-,-,-,-,-,-,-,-,-,-,-,-,-,-,-,-,-,-,-,-,-,-,-,-,-,-,-,-,-,-,-,-,-,-,-,-,-,-,-,-,-,-,-,-,-,-,-,-,-,-,-,-,-,-,-,-,-,-,-,-,-,-,-,-
-,,-,,,,,2019-04,,,,76.833855,,CPCB,38.4,,,,,,Well At Village Gattal Near Bhiwadi To Bhiwadi Industrial Area Bhiwadi Rajasthan,-,28.194345,,,,ALWAR,,Yamuna Upper,,-,,,,576,3,,,Rajasthan,21.5,13.3,-,,,,68,,,,,,,,,,,2.06,,,,3,,,,,,0.84,,,,,,,,,,,790,,,,,,,,7.9,,,,,,,192,Ganga Basin,,-,-,-,-,-,-,-,-,-,-,-,-,-,-,-,-,-,-,-,-,-,-,-,-,-,-,-,-,-,-,-,-,-,-,-,-,-,-,-,-,-,-,-,-,-,-,-,-,-,-,-,-,-,-,-,-,-,-,-,-,-,-,-,-,-,-,-,-,-,-,-,-,-,-,-,-,-,-,-,-
-,,-,,,,,2019-04,,,,76.86124,,CPCB,72,,,,,,Well At Village Harchandpur Very Near Bhiwadi To Bhiwadi Industrial Area Bhiwadi Rajasthan,-,28.201873,,,,ALWAR,,Yamuna Upper,,-,,,,2206,3,,,Rajasthan,42.9,21.7,-,,,,748,,,,,,,,,,,2.36,,,,3,,,,,,0.98,,,,,,,,,,,3000,,,,,,,,7.8,,,,,,,312,Ganga Basin,,-,-,-,-,-,-,-,-,-,-,-,-,-,-,-,-,-,-,-,-,-,-,-,-,-,-,-,-,-,-,-,-,-,-,-,-,-,-,-,-,-,-,-,-,-,-,-,-,-,-,-,-,-,-,-,-,-,-,-,-,-,-,-,-,-,-,-,-,-,-,-,-,-,-,-,-,-,-,-,-
-,,-,,,,,2019-04,,,,76.778288,,CPCB,28.8,,,,,,Well Kothi In Village Bagar Rajput Alwar Rajasthan,-,27.517069,,,,ALWAR,,Yamuna Middle,,-,,,,1078,3,,,Rajasthan,18.6,15.9,-,,,,128,,,,,,,,,,,2,,,,3,,,,,,1.12,,,,,,,,,,,1490,,,,,,,,7.1,,,,,,,304,Ganga Basin,,-,-,-,-,-,-,-,-,-,-,-,-,-,-,-,-,-,-,-,-,-,-,-,-,-,-,-,-,-,-,-,-,-,-,-,-,-,-,-,-,-,-,-,-,-,-,-,-,-,-,-,-,-,-,-,-,-,-,-,-,-,-,-,-,-,-,-,-,-,-,-,-,-,-,-,-,-,-,-,-
-,,-,,,,,2019-04,,,,75.758303,,CPCB,27.2,,,,,,Well Of Goojaron Ki Talai Mohana Road Sanganer Jaipur Rajasthan,-,26.856419,,,,JAIPUR,,Banas,,-,,,,378,3,,,Rajasthan,11.7,40,-,,,,72,,,,,,,,,,,3.16,,,,7,,,,,,1,,,,,,,,,,,490,,,,,,,,7.8,,,,,,,80,Ganga Basin,,-,-,-,-,-,-,-,-,-,-,-,-,-,-,-,-,-,-,-,-,-,-,-,-,-,-,-,-,-,-,-,-,-,-,-,-,-,-,-,-,-,-,-,-,-,-,-,-,-,-,-,-,-,-,-,-,-,-,-,-,-,-,-,-,-,-,-,-,-,-,-,-,-,-,-,-,-,-,-,-
-,,-,,,,,2019-04,,,,75.777269,,CPCB,124.8,,,,,,Well Of Riico At Leather Complex Manpur Macheri Jaipur Rajasthan,-,26.855883,,,,JAIPUR,,Banas,,-,,,,1154,3,,,Rajasthan,24.4,9.2,-,,,,116,,,,,,,,,,,2,,,,3,,,,,,1,,,,,,,,,,,1610,,,,,,,,8.1,,,,,,,200,Ganga Basin,,-,-,-,-,-,-,-,-,-,-,-,-,-,-,-,-,-,-,-,-,-,-,-,-,-,-,-,-,-,-,-,-,-,-,-,-,-,-,-,-,-,-,-,-,-,-,-,-,-,-,-,-,-,-,-,-,-,-,-,-,-,-,-,-,-,-,-,-,-,-,-,-,-,-,-,-,-,-,-,-
-,,-,,,,,2019-04,,,,75.759083,,CPCB,43.2,,,,,,Well Of Sh Mnagal Chand Meena Manpur Macheri Jaipur Rajasthan,-,26.883214,,,,JAIPUR,,Banas,,-,,,,562,3,,,Rajasthan,12.7,9.2,-,,,,68,,,,,,,,,,,2,,,,3,,,,,,0.96,,,,,,,,,,,760,,,,,,,,8.3,,,,,,,180,Ganga Basin,,-,-,-,-,-,-,-,-,-,-,-,-,-,-,-,-,-,-,-,-,-,-,-,-,-,-,-,-,-,-,-,-,-,-,-,-,-,-,-,-,-,-,-,-,-,-,-,-,-,-,-,-,-,-,-,-,-,-,-,-,-,-,-,-,-,-,-,-,-,-,-,-,-,-,-,-,-,-,-,-
-,,-,,,,,2019-04,,,,75.766814,,CPCB,41.6,,,,,,Well Of Sh Mool Chand Raiger Manpur Macheri Jaipur Rajasthan,-,26.869836,,,,JAIPUR,,Banas,,-,,,,522,3,,,Rajasthan,22.4,12.5,-,,,,72,,,,,,,,,,,1.84,,,,3,,,,,,0.9,,,,,,,,,,,490,,,,,,,,7.7,,,,,,,192,Ganga Basin,,-,-,-,-,-,-,-,-,-,-,-,-,-,-,-,-,-,-,-,-,-,-,-,-,-,-,-,-,-,-,-,-,-,-,-,-,-,-,-,-,-,-,-,-,-,-,-,-,-,-,-,-,-,-,-,-,-,-,-,-,-,-,-,-,-,-,-,-,-,-,-,-,-,-,-,-,-,-,-,-
-,,-,,,,,2019-05,,,,78.455,,CGWB,,,,,,,Aarauli,-,26.16,,0,,GWALIOR,,Yamuna Lower,,-,,25,,,,,1.2,Madhya Pradesh,-,,-,,,,42,89,,,,,,,,,,,,278,,,,18,,,,0.45,,,297,,,,,,,,740,,30,,,,,,7.1,,,,,,,,Ganga Basin,,-,-,-,-,-,-,-,-,-,-,-,-,-,-,-,-,-,-,-,-,-,-,-,-,-,-,-,-,-,-,-,-,-,-,-,-,-,-,-,-,-,-,-,-,-,-,-,-,-,-,-,-,-,-,-,-,-,-,-,-,-,-,-,-,-,-,-,-,-,-,-,-,-,-,-,-,-,-,-,-
-,,-,,,,,2019-05,,,,79.53666667,,CGWB,,,,,,,Abhana,-,23.705,,0,,DAMOH,,Yamuna Lower,,-,,54,,,,,165,Madhya Pradesh,-,,-,,,,269,118,,,,,,,,,,,,439,,,,35,,,,1.27,,,440,,,,,,,,1988,,150,,,,,,7.53,,,,,,,,Ganga Basin,,-,-,-,-,-,-,-,-,-,-,-,-,-,-,-,-,-,-,-,-,-,-,-,-,-,-,-,-,-,-,-,-,-,-,-,-,-,-,-,-,-,-,-,-,-,-,-,-,-,-,-,-,-,-,-,-,-,-,-,-,-,-,-,-,-,-,-,-,-,-,-,-,-,-,-,-,-,-,-,-
-,,-,,,,,2019-05,,,,77.46666667,,CGWB,,,,,,,Achheja,-,28.04583333,,120,,Palwal,,Yamuna Middle,,-,,22,,,,,6.6,Haryana,-,,-,,,,78,40,,,,,,,,,,,,366,,,,12,,,,0.86,,,150,,,,,,,,1114,,219,,,,,,8.74,,,,,,,,Ganga Basin,,-,-,-,-,-,-,-,-,-,-,-,-,-,-,-,-,-,-,-,-,-,-,-,-,-,-,-,-,-,-,-,-,-,-,-,-,-,-,-,-,-,-,-,-,-,-,-,-,-,-,-,-,-,-,-,-,-,-,-,-,-,-,-,-,-,-,-,-,-,-,-,-,-,-,-,-,-,-,-,-
-,,-,,,,,2019-05,,,,78.23055556,,CGWB,,,,,,,Achhroni New,-,24.99222222,,0,,SHIVPURI,,Yamuna Lower,,-,,36,,,,,1.8,Madhya Pradesh,-,,-,,,,111,84,,,,,,,,,,,,298,,,,40,,,,0.39,,,375,,,,,,,,1103,,77,,,,,,7.19,,,,,,,,Ganga Basin,,-,-,-,-,-,-,-,-,-,-,-,-,-,-,-,-,-,-,-,-,-,-,-,-,-,-,-,-,-,-,-,-,-,-,-,-,-,-,-,-,-,-,-,-,-,-,-,-,-,-,-,-,-,-,-,-,-,-,-,-,-,-,-,-,-,-,-,-,-,-,-,-,-,-,-,-,-,-,-,-
-,,-,,,,,2019-05,,,,76.00833333,,CGWB,,,,,,,Agar New,-,23.71805556,,0,,AGAR MALWA,,Kali Sindh and others up to Confluence with Parbati,,-,,40,,,,,3.2,Madhya Pradesh,-,,-,,,,210,125,,,,,,,,,,,,264,,,,41,,,,0.31,,,480,,,,,,,,1255,,58,,,,,,7.48,,,,,,,,Ganga Basin,,-,-,-,-,-,-,-,-,-,-,-,-,-,-,-,-,-,-,-,-,-,-,-,-,-,-,-,-,-,-,-,-,-,-,-,-,-,-,-,-,-,-,-,-,-,-,-,-,-,-,-,-,-,-,-,-,-,-,-,-,-,-,-,-,-,-,-,-,-,-,-,-,-,-,-,-,-,-,-,-
-,,-,,,,,2019-05,,,,76.64583333,,CGWB,,,,,,,Ahulana,-,29.11944444,,96,,SONIPAT,,Yamuna Upper,,-,,35,,,,,132,Haryana,-,,-,,,,666.4,16,,,,,,,,,,,,586,,,,161,,,,0.55,,,701,,,,,,,,3970,,537,,,,,,8.87,,,,,,,,Ganga Basin,,-,-,-,-,-,-,-,-,-,-,-,-,-,-,-,-,-,-,-,-,-,-,-,-,-,-,-,-,-,-,-,-,-,-,-,-,-,-,-,-,-,-,-,-,-,-,-,-,-,-,-,-,-,-,-,-,-,-,-,-,-,-,-,-,-,-,-,-,-,-,-,-,-,-,-,-,-,-,-,-
-,,-,,,,,2019-05,,,,77.40972222,,CGWB,,,,,,,Ainpura,-,25.64722222,,0,,SHIVPURI,,Yamuna Lower,,-,,24,,,,,1.5,Madhya Pradesh,-,,-,,,,282,164,,,,,,,,,,,,785,,,,134,,,,0.64,,,960,,,,,,,,2891,,214,,,,,,7.33,,,,,,,,Ganga Basin,,-,-,-,-,-,-,-,-,-,-,-,-,-,-,-,-,-,-,-,-,-,-,-,-,-,-,-,-,-,-,-,-,-,-,-,-,-,-,-,-,-,-,-,-,-,-,-,-,-,-,-,-,-,-,-,-,-,-,-,-,-,-,-,-,-,-,-,-,-,-,-,-,-,-,-,-,-,-,-,-
-,,-,,,,,2019-05,,,,80.2675,,CGWB,,,,,,,Ajaigarh,-,24.99027778,,0,,PANNA,,Yamuna Lower,,-,,72,,,,,1.1,Madhya Pradesh,-,,-,,,,106,130,,,,,,,,,,,,372,,,,51,,,,1.11,,,535,,,,,,,,1143,,51,,,,,,7.48,,,,,,,,Ganga Basin,,-,-,-,-,-,-,-,-,-,-,-,-,-,-,-,-,-,-,-,-,-,-,-,-,-,-,-,-,-,-,-,-,-,-,-,-,-,-,-,-,-,-,-,-,-,-,-,-,-,-,-,-,-,-,-,-,-,-,-,-,-,-,-,-,-,-,-,-,-,-,-,-,-,-,-,-,-,-,-,-
-,,-,,,,,2019-05,,,,77.5875,,CGWB,,,,,,,Ajiwala,-,30.47055556,,57,,SIRMAUR,,Yamuna Upper,,-,,17,,,,,,Himachal Pradesh,-,,-,,,,28,34,,,,,,,,,,,,116,,,,18,,,,0.13,,,158,,,,,,,,492,,19,,,,,,8.46,,,,,,,,Ganga Basin,,-,-,-,-,-,-,-,-,-,-,-,-,-,-,-,-,-,-,-,-,-,-,-,-,-,-,-,-,-,-,-,-,-,-,-,-,-,-,-,-,-,-,-,-,-,-,-,-,-,-,-,-,-,-,-,-,-,-,-,-,-,-,-,-,-,-,-,-,-,-,-,-,-,-,-,-,-,-,-,-
-,,-,,,,,2019-05,,,,77.00416667,,CGWB,,,,,,,Akaira,-,28.00833333,,0,,Nuh,,Yamuna Middle,,-,,25,,,,,12,Haryana,-,,-,,,,1049,317,,,,,,,,,,,,195,,,,175,,,,0.27,,,1511,,,,,,,,3800,,231,,,,,,7.46,,,,,,,,Ganga Basin,,-,-,-,-,-,-,-,-,-,-,-,-,-,-,-,-,-,-,-,-,-,-,-,-,-,-,-,-,-,-,-,-,-,-,-,-,-,-,-,-,-,-,-,-,-,-,-,-,-,-,-,-,-,-,-,-,-,-,-,-,-,-,-,-,-,-,-,-,-,-,-,-,-,-,-,-,-,-,-,-
-,,-,,,,,2019-05,,,,77.14166667,,CGWB,,,,,,,Akbarpur,-,28.14583333,,60,,Nuh,,Yamuna Middle,,-,,16,,,,,0,Haryana,-,,-,,,,305,56,,,,,,,,,,,,219,,,,66,,,,0.49,,,413,,,,,,,,1460,,197,,,,,,8.64,,,,,,,,Ganga Basin,,-,-,-,-,-,-,-,-,-,-,-,-,-,-,-,-,-,-,-,-,-,-,-,-,-,-,-,-,-,-,-,-,-,-,-,-,-,-,-,-,-,-,-,-,-,-,-,-,-,-,-,-,-,-,-,-,-,-,-,-,-,-,-,-,-,-,-,-,-,-,-,-,-,-,-,-,-,-,-,-
-,,-,,,,,2019-05,,,,76.56111111,,CGWB,,,,,,,Aklera,-,24.4125,,0,,JHALAWAR,,Kali Sindh and others up to Confluence with Parbati,,-,,,,592,,,1.61,Rajasthan,-,,-,,,,156,64,,,,,,,,,,,,415,,,,56,,,,0.34,,,390,,,,,,,,1980,,298,,,,,,7.42,,,,,,,,Ganga Basin,,-,-,-,-,-,-,-,-,-,-,-,-,-,-,-,-,-,-,-,-,-,-,-,-,-,-,-,-,-,-,-,-,-,-,-,-,-,-,-,-,-,-,-,-,-,-,-,-,-,-,-,-,-,-,-,-,-,-,-,-,-,-,-,-,-,-,-,-,-,-,-,-,-,-,-,-,-,-,-,-
-,,-,,,,,2019-05,,,,77.19,,CGWB,,,,,,,Akoda,-,24.865,,0,,GUNA,,Kali Sindh and others up to Confluence with Parbati,,-,,22,,,,,1,Madhya Pradesh,-,,-,,,,13,50,,,,,,,,,,,,209,,,,22,,,,0.07,,,215,,,,,,,,650,,47,,,,,,7.81,,,,,,,,Ganga Basin,,-,-,-,-,-,-,-,-,-,-,-,-,-,-,-,-,-,-,-,-,-,-,-,-,-,-,-,-,-,-,-,-,-,-,-,-,-,-,-,-,-,-,-,-,-,-,-,-,-,-,-,-,-,-,-,-,-,-,-,-,-,-,-,-,-,-,-,-,-,-,-,-,-,-,-,-,-,-,-,-
-,,-,,,,,2019-05,,,,76.59944444,,CGWB,,,,,,,Akodia,-,23.38194444,,0,,SHAJAPUR,,Kali Sindh and others up to Confluence with Parbati,,-,,47,,,,,10.2,Madhya Pradesh,-,,-,,,,89,16,,,,,,,,,,,,437,,,,63,,,,0.42,,,300,,,,,,,,1164,,119,,,,,,7.68,,,,,,,,Ganga Basin,,-,-,-,-,-,-,-,-,-,-,-,-,-,-,-,-,-,-,-,-,-,-,-,-,-,-,-,-,-,-,-,-,-,-,-,-,-,-,-,-,-,-,-,-,-,-,-,-,-,-,-,-,-,-,-,-,-,-,-,-,-,-,-,-,-,-,-,-,-,-,-,-,-,-,-,-,-,-,-,-
-,,-,,,,,2019-05,,,,76.30277778,,CGWB,,,,,,,Aktasa,-,24.4875,,0,,JHALAWAR,,Kali Sindh and others up to Confluence with Parbati,,-,,,,754,,,30,Rajasthan,-,,-,,,,1297,360,,,,,,,,,,,,281,,,,199.81,,,,0.148,,,1720,,,,,,,,5680,,511,,,,,,7.32,,,,,,,,Ganga Basin,,-,-,-,-,-,-,-,-,-,-,-,-,-,-,-,-,-,-,-,-,-,-,-,-,-,-,-,-,-,-,-,-,-,-,-,-,-,-,-,-,-,-,-,-,-,-,-,-,-,-,-,-,-,-,-,-,-,-,-,-,-,-,-,-,-,-,-,-,-,-,-,-,-,-,-,-,-,-,-,-
-,,-,,,,,2019-05,,,,76.15055556,,CGWB,,,,,,,Alari,-,23.21277778,,0,,DEWAS,,Chambal Upper,,-,,23,,,,,13.1,Madhya Pradesh,-,,-,,,,84,42,,,,,,,,,,,,299,,,,32,,,,0.45,,,235,,,,,,,,845,,75,,,,,,7.89,,,,,,,,Ganga Basin,,-,-,-,-,-,-,-,-,-,-,-,-,-,-,-,-,-,-,-,-,-,-,-,-,-,-,-,-,-,-,-,-,-,-,-,-,-,-,-,-,-,-,-,-,-,-,-,-,-,-,-,-,-,-,-,-,-,-,-,-,-,-,-,-,-,-,-,-,-,-,-,-,-,-,-,-,-,-,-,-
-,,-,,,,,2019-05,,,,76.08333333,,CGWB,,,,,,,Aligarh,-,25.96666667,,96,,TONK,,Banas,,-,,,,2197,,,1.53,Rajasthan,-,,-,,,,142,108,,,,,,,,,,,,439,,,,75.5,,,,0.378,,,580,,,,,,,,2565,,346,,,,,,8.44,,,,,,,,Ganga Basin,,-,-,-,-,-,-,-,-,-,-,-,-,-,-,-,-,-,-,-,-,-,-,-,-,-,-,-,-,-,-,-,-,-,-,-,-,-,-,-,-,-,-,-,-,-,-,-,-,-,-,-,-,-,-,-,-,-,-,-,-,-,-,-,-,-,-,-,-,-,-,-,-,-,-,-,-,-,-,-,-
-,,-,,,,,2019-05,,,,75.52972222,,CGWB,,,,,,,Alot,-,23.75777778,,0,,RATLAM,,Chambal Upper,,-,,25,,,,,1.5,Madhya Pradesh,-,,-,,,,188,129,,,,,,,,,,,,383,,,,36,,,,0.25,,,470,,,,,,,,1387,,87,,,,,,7.62,,,,,,,,Ganga Basin,,-,-,-,-,-,-,-,-,-,-,-,-,-,-,-,-,-,-,-,-,-,-,-,-,-,-,-,-,-,-,-,-,-,-,-,-,-,-,-,-,-,-,-,-,-,-,-,-,-,-,-,-,-,-,-,-,-,-,-,-,-,-,-,-,-,-,-,-,-,-,-,-,-,-,-,-,-,-,-,-
-,,-,,,,,2019-05,,,,80.03388889,,CGWB,,,,,,,Amanganj,-,24.42138889,,0,,PANNA,,Yamuna Lower,,-,,16,,,,,7.8,Madhya Pradesh,-,,-,,,,50,421,,,,,,,,,,,,354,,,,66,,,,1.12,,,1325,,,,,,,,2010,,70,,,,,,7.26,,,,,,,,Ganga Basin,,-,-,-,-,-,-,-,-,-,-,-,-,-,-,-,-,-,-,-,-,-,-,-,-,-,-,-,-,-,-,-,-,-,-,-,-,-,-,-,-,-,-,-,-,-,-,-,-,-,-,-,-,-,-,-,-,-,-,-,-,-,-,-,-,-,-,-,-,-,-,-,-,-,-,-,-,-,-,-,-
-,,-,,,,,2019-05,,,,80.97555556,,CGWB,,,,,,,Amarpatan1,-,24.31444444,,0,,SATNA,,Tons,,-,,20,,,,,2.4,Madhya Pradesh,-,,-,,,,124,178,,,,,,,,,,,,455,,,,34,,,,0.45,,,585,,,,,,,,1427,,56,,,,,,7.42,,,,,,,,Ganga Basin,,-,-,-,-,-,-,-,-,-,-,-,-,-,-,-,-,-,-,-,-,-,-,-,-,-,-,-,-,-,-,-,-,-,-,-,-,-,-,-,-,-,-,-,-,-,-,-,-,-,-,-,-,-,-,-,-,-,-,-,-,-,-,-,-,-,-,-,-,-,-,-,-,-,-,-,-,-,-,-,-
-,,-,,,,,2019-05,,,,75.35416667,,CGWB,,,,,,,Amarwasi,-,25.72083333,,0,,BHILWARA,,Banas,,-,,,,1183,,,6.04,Rajasthan,-,,-,,,,241,64,,,,,,,,,,,,208,,,,46.27,,,,0.005,,,350,,,,,,,,1600,,208,,,,,,7.52,,,,,,,,Ganga Basin,,-,-,-,-,-,-,-,-,-,-,-,-,-,-,-,-,-,-,-,-,-,-,-,-,-,-,-,-,-,-,-,-,-,-,-,-,-,-,-,-,-,-,-,-,-,-,-,-,-,-,-,-,-,-,-,-,-,-,-,-,-,-,-,-,-,-,-,-,-,-,-,-,-,-,-,-,-,-,-,-
-,,-,,,,,2019-05,,,,85.69944444,,CGWB,,,,,,,Ambari,-,25.14,,0,,SHEIKHPURA,,Gandak and others,,-,,,,395.2,,,1,Bihar,-,,-,,,,53.2,20,,,,,,,,,,,,122,,,,16,,,,0.11,,,115,,,,,,,,387,,35,,,,,,8.1,,,,,,,,Ganga Basin,,-,-,-,-,-,-,-,-,-,-,-,-,-,-,-,-,-,-,-,-,-,-,-,-,-,-,-,-,-,-,-,-,-,-,-,-,-,-,-,-,-,-,-,-,-,-,-,-,-,-,-,-,-,-,-,-,-,-,-,-,-,-,-,-,-,-,-,-,-,-,-,-,-,-,-,-,-,-,-,-
-,,-,,,,,2019-05,,,,75.86666667,,CGWB,,,,,,,Amber,-,26.98333333,,0,,JAIPUR,,Banas,,-,,,,442,,,4.16,Rajasthan,-,,-,,,,135,56,,,,,,,,,,,,177,,,,38.97,,,,0.175,,,300,,,,,,,,1000,,92,,,,,,7.42,,,,,,,,Ganga Basin,,-,-,-,-,-,-,-,-,-,-,-,-,-,-,-,-,-,-,-,-,-,-,-,-,-,-,-,-,-,-,-,-,-,-,-,-,-,-,-,-,-,-,-,-,-,-,-,-,-,-,-,-,-,-,-,-,-,-,-,-,-,-,-,-,-,-,-,-,-,-,-,-,-,-,-,-,-,-,-,-
-,,-,,,,,2019-05,,,,83.2,,CGWB,,,,,,,Ambikapur,-,23.10833333,,0,,SURGUJA,,Sone,,-,,6.1,,,,,3.67,Chhattisgarh,-,,-,,,,14,28,,,,,,,,,,,,85.4,,,,4.8,,,,1.21987,,,90,,,,,,,,221,,9.05,,,,,,7.91,,,,,,,,Ganga Basin,,-,-,-,-,-,-,-,-,-,-,-,-,-,-,-,-,-,-,-,-,-,-,-,-,-,-,-,-,-,-,-,-,-,-,-,-,-,-,-,-,-,-,-,-,-,-,-,-,-,-,-,-,-,-,-,-,-,-,-,-,-,-,-,-,-,-,-,-,-,-,-,-,-,-,-,-,-,-,-,-
-,,-,,,,,2019-05,,,,83.94583333,,CGWB,,,,,,,Ambwalia,-,25.075,,0,,ROHTAS,,Ghaghara Confluence to Gomti confluence,,-,,,,330.85,,,2,Bihar,-,,-,,,,19,36,,,,,,,,,,,,415,,,,49.0941,,,,0.8,,,292,,,,,,,,878,,62,,,,,,7.9,,,,,,,,Ganga Basin,,-,-,-,-,-,-,-,-,-,-,-,-,-,-,-,-,-,-,-,-,-,-,-,-,-,-,-,-,-,-,-,-,-,-,-,-,-,-,-,-,-,-,-,-,-,-,-,-,-,-,-,-,-,-,-,-,-,-,-,-,-,-,-,-,-,-,-,-,-,-,-,-,-,-,-,-,-,-,-,-
-,,-,,,,,2019-05,,,,80.57638889,,CGWB,,,,,,,Amdara,-,24.10388889,,0,,SATNA,,Tons,,-,,24,,,,,1.9,Madhya Pradesh,-,,-,,,,218,188,,,,,,,,,,,,424,,,,36,,,,0.32,,,620,,,,,,,,1544,,67,,,,,,7.87,,,,,,,,Ganga Basin,,-,-,-,-,-,-,-,-,-,-,-,-,-,-,-,-,-,-,-,-,-,-,-,-,-,-,-,-,-,-,-,-,-,-,-,-,-,-,-,-,-,-,-,-,-,-,-,-,-,-,-,-,-,-,-,-,-,-,-,-,-,-,-,-,-,-,-,-,-,-,-,-,-,-,-,-,-,-,-,-
-,,-,,,,,2019-05,,,,83.40972222,,CGWB,,,,,,,Amdih,-,23.22722222,,0,,SURGUJA,,Sone,,-,,11.44,,,,,4.91,Chhattisgarh,-,,-,,,,21,32,,,,,,,,,,,,176.9,,,,20.4,,,,1.96979,,,165,,,,,,,,406,,8.53,,,,,,8.06,,,,,,,,Ganga Basin,,-,-,-,-,-,-,-,-,-,-,-,-,-,-,-,-,-,-,-,-,-,-,-,-,-,-,-,-,-,-,-,-,-,-,-,-,-,-,-,-,-,-,-,-,-,-,-,-,-,-,-,-,-,-,-,-,-,-,-,-,-,-,-,-,-,-,-,-,-,-,-,-,-,-,-,-,-,-,-,-
-,,-,,,,,2019-05,,,,81.29777778,,CGWB,,,,,,,Amiliya,-,23.32194444,,0,,UMARIA,,Sone,,-,,40,,,,,1.5,Madhya Pradesh,-,,-,,,,7,40,,,,,,,,,,,,154,,,,6,,,,0.29,,,126,,,,,,,,345,,20,,,,,,7.45,,,,,,,,Ganga Basin,,-,-,-,-,-,-,-,-,-,-,-,-,-,-,-,-,-,-,-,-,-,-,-,-,-,-,-,-,-,-,-,-,-,-,-,-,-,-,-,-,-,-,-,-,-,-,-,-,-,-,-,-,-,-,-,-,-,-,-,-,-,-,-,-,-,-,-,-,-,-,-,-,-,-,-,-,-,-,-,-
-,,-,,,,,2019-05,,,,82.13083333,,CGWB,,,,,,,Amiliya1,-,24.54722222,,0,,SIDHI,,Sone,,-,,35,,,,,0.5,Madhya Pradesh,-,,-,,,,7,90,,,,,,,,,,,,346,,,,12,,,,0.29,,,275,,,,,,,,650,,22,,,,,,7.52,,,,,,,,Ganga Basin,,-,-,-,-,-,-,-,-,-,-,-,-,-,-,-,-,-,-,-,-,-,-,-,-,-,-,-,-,-,-,-,-,-,-,-,-,-,-,-,-,-,-,-,-,-,-,-,-,-,-,-,-,-,-,-,-,-,-,-,-,-,-,-,-,-,-,-,-,-,-,-,-,-,-,-,-,-,-,-,-
-,,-,,,,,2019-05,,,,81.30833333,,CGWB,,,,,,,Amilki,-,24.425,,0,,REWA,,Tons,,-,,24,,,,,1.3,Madhya Pradesh,-,,-,,,,121,34,,,,,,,,,,,,400,,,,100,,,,0.45,,,495,,,,,,,,1294,,68,,,,,,7.32,,,,,,,,Ganga Basin,,-,-,-,-,-,-,-,-,-,-,-,-,-,-,-,-,-,-,-,-,-,-,-,-,-,-,-,-,-,-,-,-,-,-,-,-,-,-,-,-,-,-,-,-,-,-,-,-,-,-,-,-,-,-,-,-,-,-,-,-,-,-,-,-,-,-,-,-,-,-,-,-,-,-,-,-,-,-,-,-
-,,-,,,,,2019-05,,,,88.55,,CGWB,,,,,,,Aminpur Bazar,-,22.65444444,,0,,NORTH 24 PARGANAS,,Bhagirathi and others (Ganga Lower),,-,,,,1110.4,,,2.65,West Bengal,-,,-,,,,53.175,48,,,,,,,,,,,,439.2,,,,41.2621,,,,0.52,,,290,,,,,,,,772.7,,50.04,,,,,,7.4,,,,,,,,Ganga Basin,,-,-,-,-,-,-,-,-,-,-,-,-,-,-,-,-,-,-,-,-,-,-,-,-,-,-,-,-,-,-,-,-,-,-,-,-,-,-,-,-,-,-,-,-,-,-,-,-,-,-,-,-,-,-,-,-,-,-,-,-,-,-,-,-,-,-,-,-,-,-,-,-,-,-,-,-,-,-,-,-
-,,-,,,,,2019-05,,,,87.93777778,,CGWB,,,,,,,Amirpur,-,23.24472222,,0,,PURBA BARDHAMAN,,Bhagirathi and others (Ganga Lower),,-,,,,698.078,,,3.27,West Bengal,-,,-,,,,28.36,16,,,,,,,,,,,,61,,,,6.075,,,,0,,,65,,,,,,,,184,,9.34,,,,,,8.11,,,,,,,,Ganga Basin,,-,-,-,-,-,-,-,-,-,-,-,-,-,-,-,-,-,-,-,-,-,-,-,-,-,-,-,-,-,-,-,-,-,-,-,-,-,-,-,-,-,-,-,-,-,-,-,-,-,-,-,-,-,-,-,-,-,-,-,-,-,-,-,-,-,-,-,-,-,-,-,-,-,-,-,-,-,-,-,-
-,,-,,,,,2019-05,,,,81.54583333,,CGWB,,,,,,,Amjhor,-,23.66666667,,0,,SHAHDOL,,Sone,,-,,24,,,,,4.8,Madhya Pradesh,-,,-,,,,115,42,,,,,,,,,,,,37,,,,19,,,,0.1,,,185,,,,,,,,465,,13,,,,,,6.92,,,,,,,,Ganga Basin,,-,-,-,-,-,-,-,-,-,-,-,-,-,-,-,-,-,-,-,-,-,-,-,-,-,-,-,-,-,-,-,-,-,-,-,-,-,-,-,-,-,-,-,-,-,-,-,-,-,-,-,-,-,-,-,-,-,-,-,-,-,-,-,-,-,-,-,-,-,-,-,-,-,-,-,-,-,-,-,-
-,,-,,,,,2019-05,,,,76.10416667,,CGWB,,,,,,,Amla,-,23.8525,,0,,AGAR MALWA,,Kali Sindh and others up to Confluence with Parbati,,-,,25,,,,,0.8,Madhya Pradesh,-,,-,,,,181,149,,,,,,,,,,,,240,,,,48,,,,0.26,,,569,,,,,,,,1242,,22,,,,,,7.57,,,,,,,,Ganga Basin,,-,-,-,-,-,-,-,-,-,-,-,-,-,-,-,-,-,-,-,-,-,-,-,-,-,-,-,-,-,-,-,-,-,-,-,-,-,-,-,-,-,-,-,-,-,-,-,-,-,-,-,-,-,-,-,-,-,-,-,-,-,-,-,-,-,-,-,-,-,-,-,-,-,-,-,-,-,-,-,-
-,,-,,,,,2019-05,,,,79.32611111,,CGWB,,,,,,,Amodha,-,24.19944444,,0,,CHHATARPUR,,Yamuna Lower,,-,,14,,,,,0.8,Madhya Pradesh,-,,-,,,,18,32,,,,,,,,,,,,201,,,,8,,,,0.14,,,115,,,,,,,,336,,31,,,,,,6.76,,,,,,,,Ganga Basin,,-,-,-,-,-,-,-,-,-,-,-,-,-,-,-,-,-,-,-,-,-,-,-,-,-,-,-,-,-,-,-,-,-,-,-,-,-,-,-,-,-,-,-,-,-,-,-,-,-,-,-,-,-,-,-,-,-,-,-,-,-,-,-,-,-,-,-,-,-,-,-,-,-,-,-,-,-,-,-,-
-,,-,,,,,2019-05,,,,87.8475,,CGWB,,,,,,,Amra,-,23.24361111,,6,,PURBA BARDHAMAN,,Bhagirathi and others (Ganga Lower),,-,,,,514.431,,,49.73,West Bengal,-,,-,,,,212.7,44,,,,,,,,,,,,353.8,,,,41.31,,,,0,,,280,,,,,,,,1258,,119.03,,,,,,8.33,,,,,,,,Ganga Basin,,-,-,-,-,-,-,-,-,-,-,-,-,-,-,-,-,-,-,-,-,-,-,-,-,-,-,-,-,-,-,-,-,-,-,-,-,-,-,-,-,-,-,-,-,-,-,-,-,-,-,-,-,-,-,-,-,-,-,-,-,-,-,-,-,-,-,-,-,-,-,-,-,-,-,-,-,-,-,-,-
-,,-,,,,,2019-05,,,,77.4425,,CGWB,,,,,,,Anandpur,-,24.16666667,,0,,VIDISHA,,Yamuna Lower,,-,,32,,,,,1,Madhya Pradesh,-,,-,,,,76,50,,,,,,,,,,,,572,,,,41,,,,0.62,,,295,,,,,,,,1270,,155,,,,,,7.5,,,,,,,,Ganga Basin,,-,-,-,-,-,-,-,-,-,-,-,-,-,-,-,-,-,-,-,-,-,-,-,-,-,-,-,-,-,-,-,-,-,-,-,-,-,-,-,-,-,-,-,-,-,-,-,-,-,-,-,-,-,-,-,-,-,-,-,-,-,-,-,-,-,-,-,-,-,-,-,-,-,-,-,-,-,-,-,-
-,,-,,,,,2019-05,,,,86.58333333,,CGWB,,,,,,,Anara,-,23.49583333,,0,,PURULIYA,,Damodar,,-,,,,453.53,,,1.85,West Bengal,-,,-,,,,109.895,10,,,,,,,,,,,,207.4,,,,49.815,,,,0.08,,,230,,,,,,,,820,,76.14,,,,,,7.83,,,,,,,,Ganga Basin,,-,-,-,-,-,-,-,-,-,-,-,-,-,-,-,-,-,-,-,-,-,-,-,-,-,-,-,-,-,-,-,-,-,-,-,-,-,-,-,-,-,-,-,-,-,-,-,-,-,-,-,-,-,-,-,-,-,-,-,-,-,-,-,-,-,-,-,-,-,-,-,-,-,-,-,-,-,-,-,-
-,,-,,,,,2019-05,,,,77.47666667,,CGWB,,,,,,,Angai,-,26.60194444,,0,,DHOLPUR,,Yamuna Middle,,-,,,,559,,,16.8,Rajasthan,-,,-,,,,52,68,,,,,,,,,,,,315,,,,31.2,,,,0.64,,,298,,,,,,,,590,,43,,,,,,7.86,,,,,,,,Ganga Basin,,-,-,-,-,-,-,-,-,-,-,-,-,-,-,-,-,-,-,-,-,-,-,-,-,-,-,-,-,-,-,-,-,-,-,-,-,-,-,-,-,-,-,-,-,-,-,-,-,-,-,-,-,-,-,-,-,-,-,-,-,-,-,-,-,-,-,-,-,-,-,-,-,-,-,-,-,-,-,-,-
-,,-,,,,,2019-05,,,,85.26555556,,CGWB,,,,,,,Ankuri Bazar,-,25.045,,0,,NALANDA,,Gandak and others,,-,,,,1362.4,,,2.2,Bihar,-,,-,,,,17.7,40,,,,,,,,,,,,214,,,,12,,,,0.02,,,150,,,,,,,,402,,28,,,,,,8,,,,,,,,Ganga Basin,,-,-,-,-,-,-,-,-,-,-,-,-,-,-,-,-,-,-,-,-,-,-,-,-,-,-,-,-,-,-,-,-,-,-,-,-,-,-,-,-,-,-,-,-,-,-,-,-,-,-,-,-,-,-,-,-,-,-,-,-,-,-,-,-,-,-,-,-,-,-,-,-,-,-,-,-,-,-,-,-
-,,-,,,,,2019-05,,,,76.3,,CGWB,,,,,,,Anta1,-,25.15833333,,0,,BARAN,,Kali Sindh and others up to Confluence with Parbati,,-,,,,715,,,0.167,Rajasthan,-,,-,,,,71,68,,,,,,,,,,,,244,,,,68.16,,,,0.167,,,450,,,,,,,,1200,,79,,,,,,7.62,,,,,,,,Ganga Basin,,-,-,-,-,-,-,-,-,-,-,-,-,-,-,-,-,-,-,-,-,-,-,-,-,-,-,-,-,-,-,-,-,-,-,-,-,-,-,-,-,-,-,-,-,-,-,-,-,-,-,-,-,-,-,-,-,-,-,-,-,-,-,-,-,-,-,-,-,-,-,-,-,-,-,-,-,-,-,-,-
-,,-,,,,,2019-05,,,,75.91527778,,CGWB,,,,,,,Anvlikalan,-,24.44166667,,0,,JHALAWAR,,Kali Sindh and others up to Confluence with Parbati,,-,,,,683,,,2.91,Rajasthan,-,,-,,,,64,20,,,,,,,,,,,,171,,,,21.91,,,,0.28,,,140,,,,,,,,570,,83,,,,,,8.14,,,,,,,,Ganga Basin,,-,-,-,-,-,-,-,-,-,-,-,-,-,-,-,-,-,-,-,-,-,-,-,-,-,-,-,-,-,-,-,-,-,-,-,-,-,-,-,-,-,-,-,-,-,-,-,-,-,-,-,-,-,-,-,-,-,-,-,-,-,-,-,-,-,-,-,-,-,-,-,-,-,-,-,-,-,-,-,-
-,,-,,,,,2019-05,,,,76.73944444,,CGWB,,,,,,,Arandia,-,23.20777778,,0,,SHAJAPUR,,Kali Sindh and others up to Confluence with Parbati,,-,,63,,,,,10.1,Madhya Pradesh,-,,-,,,,520,232,,,,,,,,,,,,344,,,,75,,,,0.61,,,890,,,,,,,,2412,,133,,,,,,7.28,,,,,,,,Ganga Basin,,-,-,-,-,-,-,-,-,-,-,-,-,-,-,-,-,-,-,-,-,-,-,-,-,-,-,-,-,-,-,-,-,-,-,-,-,-,-,-,-,-,-,-,-,-,-,-,-,-,-,-,-,-,-,-,-,-,-,-,-,-,-,-,-,-,-,-,-,-,-,-,-,-,-,-,-,-,-,-,-
-,,-,,,,,2019-05,,,,87.42916667,,CGWB,,,,,,,Araria,-,26.1375,,12,,ARARIA,,Bhagirathi and others (Ganga Lower),,-,,,,418.6,,,5.52,Bihar,-,,-,,,,127.8,50,,,,,,,,,,,,129.15,,,,43.74,,,,0.81,,,305,,,,,,,,1158,,115.9,,,,,,8.45,,,,,,,,Ganga Basin,,-,-,-,-,-,-,-,-,-,-,-,-,-,-,-,-,-,-,-,-,-,-,-,-,-,-,-,-,-,-,-,-,-,-,-,-,-,-,-,-,-,-,-,-,-,-,-,-,-,-,-,-,-,-,-,-,-,-,-,-,-,-,-,-,-,-,-,-,-,-,-,-,-,-,-,-,-,-,-,-
-,,-,,,,,2019-05,,,,75.06666667,,CGWB,,,,,,,Arian,-,26.45,,120,,AJMER,,Banas,,-,,,,364,,,32,Rajasthan,-,,-,,,,212,64,,,,,,,,,,,,475,,,,68.15,,,,1.666,,,440,,,,,,,,2080,,278,,,,,,8.39,,,,,,,,Ganga Basin,,-,-,-,-,-,-,-,-,-,-,-,-,-,-,-,-,-,-,-,-,-,-,-,-,-,-,-,-,-,-,-,-,-,-,-,-,-,-,-,-,-,-,-,-,-,-,-,-,-,-,-,-,-,-,-,-,-,-,-,-,-,-,-,-,-,-,-,-,-,-,-,-,-,-,-,-,-,-,-,-
-,,-,,,,,2019-05,,,,75.80833333,,CGWB,,,,,,,Arniyalmal,-,26.05833333,,0,,TONK,,Banas,,-,,,,6780,,,4.41,Rajasthan,-,,-,,,,57,32,,,,,,,,,,,,378,,,,17.06,,,,0.178,,,150,,,,,,,,900,,138,,,,,,8.12,,,,,,,,Ganga Basin,,-,-,-,-,-,-,-,-,-,-,-,-,-,-,-,-,-,-,-,-,-,-,-,-,-,-,-,-,-,-,-,-,-,-,-,-,-,-,-,-,-,-,-,-,-,-,-,-,-,-,-,-,-,-,-,-,-,-,-,-,-,-,-,-,-,-,-,-,-,-,-,-,-,-,-,-,-,-,-,-
-,,-,,,,,2019-05,,,,86.1625,,CGWB,,,,,,,Arsha,-,23.33333333,,0,,PURULIYA,,Damodar,,-,,,,146.621,,,15.98,West Bengal,-,,-,,,,77.99,16,,,,,,,,,,,,219.6,,,,36.45,,,,0.31,,,190,,,,,,,,576,,43.28,,,,,,8.07,,,,,,,,Ganga Basin,,-,-,-,-,-,-,-,-,-,-,-,-,-,-,-,-,-,-,-,-,-,-,-,-,-,-,-,-,-,-,-,-,-,-,-,-,-,-,-,-,-,-,-,-,-,-,-,-,-,-,-,-,-,-,-,-,-,-,-,-,-,-,-,-,-,-,-,-,-,-,-,-,-,-,-,-,-,-,-,-
-,,-,,,,,2019-05,,,,76.50416667,,CGWB,,,,,,,Asalpur,-,24.27083333,,0,,JHALAWAR,,Kali Sindh and others up to Confluence with Parbati,,-,,,,351,,,3.15,Rajasthan,-,,-,,,,35,48,,,,,,,,,,,,122,,,,46.25,,,,0.325,,,310,,,,,,,,640,,25,,,,,,7.84,,,,,,,,Ganga Basin,,-,-,-,-,-,-,-,-,-,-,-,-,-,-,-,-,-,-,-,-,-,-,-,-,-,-,-,-,-,-,-,-,-,-,-,-,-,-,-,-,-,-,-,-,-,-,-,-,-,-,-,-,-,-,-,-,-,-,-,-,-,-,-,-,-,-,-,-,-,-,-,-,-,-,-,-,-,-,-,-
